id,name,distance,Provincia,Comunidad,Longitud,Latitud,src_id,origen
9218868437227407266,Almería,,,,-2.45974,36.83814,34010404013,latlong de geonames
9218868437227407266,Los Gallardos,,,,-1.94029,37.16832,34010404048,latlong de geonames
9218868437227407266,Níjar,,,,-2.20595,36.96655,34010404066,latlong de geonames
9218868437227407266,Roquetas de Mar,,,,-2.61475,36.76419,34010404079,latlong de geonames
9218868437227407266,Vera,,,,-1.81386,37.21239,34010404100,latlong de geonames
9218868437227407266,Las Tres Villas,,,,-2.72162,37.15945,34010404901,latlong de geonames
9218868437227407266,El Ejido,,,,-2.81456,36.77629,34010404902,latlong de geonames
9218868437227407266,La Mojonera,,,,-2.4373,37.29233,34010404903,latlong de geonames
9218868437227407266,Algodonales,,,,-5.40536,36.88044,34011111005,latlong de geonames
9218868437227407266,Los Barrios,,,,-5.49213,36.18482,34011111008,latlong de geonames
9218868437227407266,El Bosque,,,,-5.50535,36.75828,34011111011,latlong de geonames
9218868437227407266,El Gastor,,,,-5.32334,36.85478,34011111018,latlong de geonames
9218868437227407266,Jerez de la Frontera,,,,-6.13606,36.68645,34011111020,latlong de geonames
9218868437227407266,La Línea de la Concepción,,,,-5.34777,36.16809,34011111022,latlong de geonames
9218868437227407266,El Puerto de Santa María,,,,-6.23298,36.59389,34011111027,latlong de geonames
9218868437227407266,Los Blázquez,,,,-5.44029,38.40572,34011414011,latlong de geonames
9218868437227407266,La Carlota,,,,-4.93122,37.67359,34011414017,latlong de geonames
9218868437227407266,El Carpio,,,,-4.49696,37.94085,34011414018,latlong de geonames
9218868437227407266,La Granjuela,,,,-5.35,38.36667,34011414032,latlong de geonames
9218868437227407266,El Guijo,,,,-5.85693,36.73758,34011414034,latlong de geonames
9218868437227407266,La Rambla,,,,-16.65015,28.39276,34011414057,latlong de geonames
9218868437227407266,La Victoria,,,,-16.46232,28.43231,34011414065,latlong de geonames
9218868437227407266,El Viso,,,,-4.95,38.48333,34011414074,latlong de geonames
9218868437227407266,Dehesas Viejas,,,,-3.55225,37.47414,34011818065,latlong de geonames
9218868437227407266,Granada,,,,-3.60667,37.18817,34011818087,latlong de geonames
9218868437227407266,La Calahorra,,,,-1.96521,42.30506,34011818114,latlong de geonames
9218868437227407266,La Malahá,,,,-3.73682,37.10418,34011818126,latlong de geonames
9218868437227407266,Villa de Otura,,,,0,0,34011818149,latlong de geonames
9218868437227407266,La Peza,,,,-3.31829,37.29215,34011818154,latlong de geonames
9218868437227407266,La Zubia,,,,-3.584,37.11906,34011818193,latlong de geonames
9218868437227407266,La Taha,,,,-3.32769,36.92867,34011818901,latlong de geonames
9218868437227407266,El Valle,,,,0.07026,42.42986,34011818902,latlong de geonames
9218868437227407266,Las Gabias,,,,-3.67029,37.13548,34011818905,latlong de geonames
9218868437227407266,Los Guajares,,,,-3.6056,36.85767,34011818906,latlong de geonames
9218868437227407266,El Pinar,,,,-17.86932,28.66484,34011818910,latlong de geonames
9218868437227407266,Valderrubio,,,,-3.82005,37.23378,34011818914,latlong de geonames
9218868437227407266,El Almendro,,,,-7.27038,37.50756,34012121003,latlong de geonames
9218868437227407266,El Campillo,,,,-3.0457,38.274,34012121018,latlong de geonames
9218868437227407266,El Cerro de Andévalo,,,,-6.93692,37.73537,34012121023,latlong de geonames
9218868437227407266,La Granada de Río-Tinto,,,,-6.50848,37.76879,34012121036,latlong de geonames
9218868437227407266,El Granado,,,,-7.41605,37.51976,34012121037,latlong de geonames
9218868437227407266,Los Marines,,,,-6.62385,37.90345,34012121048,latlong de geonames
9218868437227407266,La Nava,,,,-6.50525,39.06328,34012121051,latlong de geonames
9218868437227407266,La Palma del Condado,,,,-6.55231,37.38605,34012121054,latlong de geonames
9218868437227407266,La Carolina,,,,-3.61535,38.27559,34012323024,latlong de geonames
9218868437227407266,La Guardia de Jaén,,,,-3.69312,37.74303,34012323038,latlong de geonames
9218868437227407266,La Iruela,,,,-2.99659,37.91986,34012323047,latlong de geonames
9218868437227407266,La Puerta de Segura,,,,-2.73956,38.35293,34012323072,latlong de geonames
9218868437227407266,Torredelcampo,,,,-3.89731,37.77051,34012323086,latlong de geonames
9218868437227407266,Los Villares,,,,-3.33143,37.34822,34012323099,latlong de geonames
9218868437227407266,Cuarto del Madroño,,,,0,0,34012353050,latlong de geonames
9218868437227407266,El Borge,,,,-4.25662,36.825,34012929030,latlong de geonames
9218868437227407266,El Burgo,,,,-3.06522,41.58619,34012929031,latlong de geonames
9218868437227407266,Málaga,,,,-4.42034,36.72016,34012929067,latlong de geonames
9218868437227407266,Marbella,,,,-4.88583,36.51543,34012929069,latlong de geonames
9218868437227407266,Villanueva de la Concepción,,,,-4.53041,36.93027,34012929902,latlong de geonames
9218868437227407266,Montecorto,,,,-5.29863,36.81487,34012929903,latlong de geonames
9218868437227407266,Serrato,,,,-4.98003,36.88486,34012929904,latlong de geonames
9218868437227407266,La Algaba,,,,-6.01113,37.46325,34014141007,latlong de geonames
9218868437227407266,Las Cabezas de San Juan,,,,-5.93933,36.9838,34014141020,latlong de geonames
9218868437227407266,La Campana,,,,-5.4267,37.56891,34014141022,latlong de geonames
9218868437227407266,El Castillo de las Guardas,,,,-6.31503,37.69314,34014141031,latlong de geonames
9218868437227407266,El Coronil,,,,-5.6341,37.07955,34014141036,latlong de geonames
9218868437227407266,Los Corrales,,,,-4.98429,37.09918,34014141037,latlong de geonames
9218868437227407266,El Garrobo,,,,-6.1723,37.62612,34014141043,latlong de geonames
9218868437227407266,Lantejuela,,,,-5.22477,37.3535,34014141052,latlong de geonames
9218868437227407266,La Luisiana,,,,-5.24883,37.52602,34014141056,latlong de geonames
9218868437227407266,El Madroño,,,,-6.51376,37.64579,34014141057,latlong de geonames
9218868437227407266,Los Molares,,,,-5.71802,37.15704,34014141063,latlong de geonames
9218868437227407266,Las Navas de la Concepción,,,,-5.46667,37.93333,34014141066,latlong de geonames
9218868437227407266,Los Palacios y Villafranca,,,,-5.92433,37.16181,34014141069,latlong de geonames
9218868437227407266,El Pedroso,,,,-5.76667,37.85,34014141073,latlong de geonames
9218868437227407266,La Puebla de Cazalla,,,,-5.31153,37.22155,34014141077,latlong de geonames
9218868437227407266,La Puebla de los Infantes,,,,-5.38837,37.7809,34014141078,latlong de geonames
9218868437227407266,La Puebla del Río,,,,-6.06264,37.26787,34014141079,latlong de geonames
9218868437227407266,El Real de la Jara,,,,-6.15,37.95,34014141080,latlong de geonames
9218868437227407266,La Rinconada,,,,-5.98091,37.48613,34014141081,latlong de geonames
9218868437227407266,La Roda de Andalucía,,,,-4.77802,37.20381,34014141082,latlong de geonames
9218868437227407266,El Ronquillo,,,,-6.1762,37.72628,34014141083,latlong de geonames
9218868437227407266,El Rubio,,,,-4.98896,37.35617,34014141084,latlong de geonames
9218868437227407266,El Saucejo,,,,-5.09818,37.07237,34014141090,latlong de geonames
9218868437227407266,Sevilla,,,,-5.97317,37.38283,34014141091,latlong de geonames
9218868437227407266,El Viso del Alcor,,,,-5.71993,37.39106,34014141102,latlong de geonames
9218868437227407266,El Cuervo de Sevilla,,,,-6.01245,36.86924,34014141903,latlong de geonames
9218868437227407266,Boltaña,,,,0.01159,42.4249,34022222066,latlong de geonames
9218868437227407266,La Fueva,,,,0.26747,42.37389,34022222113,latlong de geonames
9218868437227407266,El Grado,,,,0.10562,42.4113,34022222115,latlong de geonames
9218868437227407266,Las Peñas de Riglos,,,,-0.7342,42.40685,34022222173,latlong de geonames
9218868437227407266,La Puebla de Castro,,,,0.2877,42.14595,34022222187,latlong de geonames
9218868437227407266,El Pueyo de Araguás,,,,0.16119,42.44233,34022222190,latlong de geonames
9218868437227407266,Torla-Ordesa,,,,-0.11209,42.62802,34022222230,latlong de geonames
9218868437227407266,Beranuy,,,,0.60484,42.37862,34022222246,latlong de geonames
9218868437227407266,La Sotonera,,,,-0.67806,42.11401,34022222904,latlong de geonames
9218868437227407266,Comunero de Ansó y Hecho,,,,0,0,34022253049,latlong de geonames
9218868437227407266,Aguaviva,,,,-2.38183,41.29315,34024444004,latlong de geonames
9218868437227407266,La Cañada de Verich,,,,-0.09992,40.87133,34024444061,latlong de geonames
9218868437227407266,El Castellar,,,,-1.05496,41.78175,34024444070,latlong de geonames
9218868437227407266,La Cerollera,,,,-0.056,40.84033,34024444077,latlong de geonames
9218868437227407266,La Codoñera,,,,-0.08578,40.93367,34024444080,latlong de geonames
9218868437227407266,La Cuba,,,,-0.29707,40.59166,34024444088,latlong de geonames
9218868437227407266,El Cuervo,,,,-6.03785,36.85298,34024444092,latlong de geonames
9218868437227407266,La Fresneda,,,,0.07417,40.92817,34024444108,latlong de geonames
9218868437227407266,La Ginebrosa,,,,-0.13525,40.86991,34024444118,latlong de geonames
9218868437227407266,La Hoz de la Vieja,,,,-0.84299,40.92391,34024444124,latlong de geonames
9218868437227407266,La Iglesuela del Cid,,,,-0.31938,40.48312,34024444126,latlong de geonames
9218868437227407266,La Mata de los Olmos,,,,-0.52116,40.86592,34024444146,latlong de geonames
9218868437227407266,Los Olmos,,,,-0.48741,40.8775,34024444173,latlong de geonames
9218868437227407266,Las Parras de Castellote,,,,-0.24426,40.77544,34024444178,latlong de geonames
9218868437227407266,El Pobo,,,,-1.64979,40.77669,34024444185,latlong de geonames
9218868437227407266,La Portellada,,,,0.05476,40.882,34024444187,latlong de geonames
9218868437227407266,La Puebla de Híjar,,,,-0.44091,41.22216,34024444191,latlong de geonames
9218868437227407266,La Puebla de Valverde,,,,-0.92783,40.22409,34024444192,latlong de geonames
9218868437227407266,El Vallecillo,,,,-1.56686,40.23408,34024444249,latlong de geonames
9218868437227407266,La Zoma,,,,-0.61944,40.78411,34024444268,latlong de geonames
9218868437227407266,Comunidad de la Pardina del Mercadal,,,,0,0,34024453076,latlong de geonames
9218868437227407266,El Franco,,,,-6.8662,43.55522,34024453077,latlong de geonames
9218868437227407266,La Almolda,,,,-0.21152,41.55339,34025050022,latlong de geonames
9218868437227407266,La Almunia de Doña Godina,,,,-1.37451,41.4767,34025050025,latlong de geonames
9218868437227407266,El Burgo de Ebro,,,,-0.74128,41.57157,34025050062,latlong de geonames
9218868437227407266,El Buste,,,,-1.60168,41.88565,34025050063,latlong de geonames
9218868437227407266,Las Cuerlas,,,,-1.55062,40.96007,34025050091,latlong de geonames
9218868437227407266,Los Fayos,,,,-1.78218,41.87849,34025050106,latlong de geonames
9218868437227407266,Figueruelas,,,,-1.17473,41.76651,34025050107,latlong de geonames
9218868437227407266,El Frago,,,,-0.93211,42.27371,34025050109,latlong de geonames
9218868437227407266,El Frasno,,,,-1.49577,41.414,34025050110,latlong de geonames
9218868437227407266,La Joyosa,,,,-1.07463,41.74449,34025050132,latlong de geonames
9218868437227407266,La Muela,,,,-2.77835,41.62909,34025050182,latlong de geonames
9218868437227407266,Las Pedrosas,,,,-0.87631,42.03813,34025050205,latlong de geonames
9218868437227407266,Los Pintanos,,,,-1.04229,42.56454,34025050210,latlong de geonames
9218868437227407266,La Puebla de Alfindén,,,,-0.74292,41.63992,34025050219,latlong de geonames
9218868437227407266,La Vilueña,,,,-1.72609,41.27266,34025050282,latlong de geonames
9218868437227407266,La Zaida,,,,-0.42909,41.32757,34025050296,latlong de geonames
9218868437227407266,Zaragoza,,,,-0.87734,41.65606,34025050297,latlong de geonames
9218868437227407266,El Franco,,,,-6.8662,43.55522,34033333023,latlong de geonames
9218868437227407266,Las Regueras,,,,-5.5352,42.62037,34033333054,latlong de geonames
9218868437227407266,Calvià,,,,2.50621,39.5657,34040707011,latlong de geonames
9218868437227407266,Ciutadella de Menorca,,,,3.83504,39.99968,34040707015,latlong de geonames
9218868437227407266,Deià,,,,2.64823,39.74806,34040707018,latlong de geonames
9218868437227407266,Formentera,,,,1.46667,38.7,34040707024,latlong de geonames
9218868437227407266,Eivissa,,,,1.43296,38.90883,34040707026,latlong de geonames
9218868437227407266,Maó-Mahón,,,,4.26583,39.88853,34040707032,latlong de geonames
9218868437227407266,Maó-Mahón,,,,4.26583,39.88853,34040707032,latlong de geonames
9218868437227407266,Es Mercadal,,,,4.10906,40.01455,34040707037,latlong de geonames
9218868437227407266,Es Mercadal,,,,4.10906,40.01455,34040707037,latlong de geonames
9218868437227407266,Palma de Mallorca,,,,2.65024,39.56939,34040707040,latlong de geonames
9218868437227407266,Palma de Mallorca,,,,2.65024,39.56939,34040707040,latlong de geonames
9218868437227407266,Pollença,,,,3.01626,39.87678,34040707042,latlong de geonames
9218868437227407266,Sa Pobla,,,,3.02394,39.7692,34040707044,latlong de geonames
9218868437227407266,Sant Josep de sa Talaia,,,,1.29437,38.92239,34040707048,latlong de geonames
9218868437227407266,Sant Joan de Labritja,,,,1.51397,39.07891,34040707050,latlong de geonames
9218868437227407266,Sant Lluís,,,,4.25819,39.84939,34040707052,latlong de geonames
9218868437227407266,Santa Eulària des Riu,,,,1.53409,38.98457,34040707054,latlong de geonames
9218868437227407266,Santa Eulària des Riu,,,,1.53409,38.98457,34040707054,latlong de geonames
9218868437227407266,Ses Salines,,,,3.05274,39.33831,34040707059,latlong de geonames
9218868437227407266,Es Castell,,,,4.2899,39.8776,34040707064,latlong de geonames
9218868437227407266,Es Migjorn Gran,,,,4.03469,39.93952,34040707902,latlong de geonames
9218868437227407266,La Oliva,,,,-13.92912,28.61052,34053535014,latlong de geonames
9218868437227407266,Las Palmas de Gran Canaria,,,,-15.41343,28.09973,34053535016,latlong de geonames
9218868437227407266,San Bartolomé de Tirajana,,,,-15.57329,27.92481,34053535019,latlong de geonames
9218868437227407266,La Aldea de San Nicolás,,,,-15.81799,28.00203,34053535020,latlong de geonames
9218868437227407266,La Guancha,,,,-16.65158,28.3732,34053838018,latlong de geonames
9218868437227407266,Los Llanos de Aridane,,,,-17.91821,28.65851,34053838024,latlong de geonames
9218868437227407266,La Matanza de Acentejo,,,,-16.4472,28.45242,34053838025,latlong de geonames
9218868437227407266,La Orotava,,,,-16.52309,28.39076,34053838026,latlong de geonames
9218868437227407266,El Paso,,,,-17.88274,28.65007,34053838027,latlong de geonames
9218868437227407266,Los Realejos,,,,-16.58275,28.38487,34053838031,latlong de geonames
9218868437227407266,El Rosario,,,,-16.36667,28.45,34053838032,latlong de geonames
9218868437227407266,El Sauzal,,,,-16.41667,28.46667,34053838041,latlong de geonames
9218868437227407266,Los Silos,,,,-16.81552,28.3661,34053838042,latlong de geonames
9218868437227407266,El Tanque,,,,-16.78053,28.33916,34053838044,latlong de geonames
9218868437227407266,La Victoria de Acentejo,,,,-16.46232,28.43231,34053838051,latlong de geonames
9218868437227407266,Vilaflor de Chasna,,,,-16.64002,28.15599,34053838052,latlong de geonames
9218868437227407266,El Pinar de El Hierro,,,,-17.96917,27.72008,34053838901,latlong de geonames
9218868437227407266,El Astillero,,,,-3.82051,43.40094,34063939008,latlong de geonames
9218868437227407266,Los Corrales de Buelna,,,,-4.07262,43.26358,34063939025,latlong de geonames
9218868437227407266,Las Rozas de Valdearroyo,,,,-4.02006,42.96553,34063939065,latlong de geonames
9218868437227407266,Los Tojos,,,,-4.25352,43.15483,34063939086,latlong de geonames
9218868437227407266,Comunidad de Campoo y Cabuérniga,,,,0,0,34063953072,latlong de geonames
9218868437227407266,La Adrada,,,,-4.63589,40.29953,34070505002,latlong de geonames
9218868437227407266,La Aldehuela,,,,-5.40983,40.41092,34070505010,latlong de geonames
9218868437227407266,El Arenal,,,,2.75,39.5,34070505013,latlong de geonames
9218868437227407266,El Barco de Ávila,,,,-5.52365,40.3571,34070505021,latlong de geonames
9218868437227407266,El Barraco,,,,-4.58922,40.45119,34070505022,latlong de geonames
9218868437227407266,Las Berlanas,,,,-4.75638,40.79856,34070505027,latlong de geonames
9218868437227407266,El Bohodón,,,,-4.73,40.91612,34070505036,latlong de geonames
9218868437227407266,La Carrera,,,,-4.14618,37.28758,34070505051,latlong de geonames
9218868437227407266,La Colilla,,,,-4.76595,40.64753,34070505061,latlong de geonames
9218868437227407266,El Fresno,,,,-3.77487,39.22839,34070505076,latlong de geonames
9218868437227407266,La Hija de Dios,,,,-4.96734,40.53013,34070505096,latlong de geonames
9218868437227407266,La Horcajada,,,,-5.46615,40.43674,34070505097,latlong de geonames
9218868437227407266,El Hornillo,,,,-5.10356,40.24994,34070505100,latlong de geonames
9218868437227407266,El Hoyo de Pinares,,,,-4.42357,40.50084,34070505102,latlong de geonames
9218868437227407266,El Losar del Barco,,,,-5.53094,40.40255,34070505112,latlong de geonames
9218868437227407266,Los Llanos de Tormes,,,,-5.50016,40.32773,34070505113,latlong de geonames
9218868437227407266,Manjabálago y Ortigosa de Rioalmar,,,,0,0,34070505119,latlong de geonames
9218868437227407266,El Mirón,,,,-5.40552,40.53322,34070505129,latlong de geonames
9218868437227407266,Las Navas del Marqués,,,,-4.33449,40.60244,34070505168,latlong de geonames
9218868437227407266,El Oso,,,,-4.76964,40.83984,34070505175,latlong de geonames
9218868437227407266,El Parral,,,,-4.98994,40.79858,34070505180,latlong de geonames
9218868437227407266,La Serrada,,,,-4.79284,40.63169,34070505232,latlong de geonames
9218868437227407266,El Tiemblo,,,,-4.50156,40.41533,34070505241,latlong de geonames
9218868437227407266,La Torre,,,,-4.56139,36.66401,34070505247,latlong de geonames
9218868437227407266,Los Altos,,,,-3.66133,42.80961,34070909014,latlong de geonames
9218868437227407266,Los Ausines,,,,-3.58333,42.21667,34070909030,latlong de geonames
9218868437227407266,Los Balbases,,,,-4.06481,42.21507,34070909034,latlong de geonames
9218868437227407266,Los Barrios de Bureba,,,,-3.39139,42.64607,34070909043,latlong de geonames
9218868437227407266,La Cueva de Roa,,,,-3.94117,41.66683,34070909117,latlong de geonames
9218868437227407266,La Gallega,,,,-3.26406,41.89861,34070909144,latlong de geonames
9218868437227407266,Las Hormazas,,,,-3.88995,42.52827,34070909166,latlong de geonames
9218868437227407266,La Horra,,,,-3.8756,41.74139,34070909168,latlong de geonames
9218868437227407266,La Puebla de Arganzón,,,,-2.83059,42.76622,34070909276,latlong de geonames
9218868437227407266,Las Quintanillas,,,,-3.84307,42.37224,34070909297,latlong de geonames
9218868437227407266,La Revilla y Ahedo,,,,-3.34651,42.01187,34070909312,latlong de geonames
9218868437227407266,La Sequera de Haza,,,,-3.81715,41.56398,34070909365,latlong de geonames
9218868437227407266,La Vid y Barrios,,,,-3.49106,41.62466,34070909421,latlong de geonames
9218868437227407266,La Vid de Bureba,,,,-3.30074,42.63068,34070909422,latlong de geonames
9218868437227407266,Comunidad de Arauzo de Miel y Huerta del Rey,,,,0,0,34070953004,latlong de geonames
9218868437227407266,Comunidad de Los Ausines y Revilla del Campo,,,,0,0,34070953005,latlong de geonames
9218868437227407266,Comunidad de Barbadillo de Herreros y Vallejimeno (E.L.M.),,,,0,0,34070953006,latlong de geonames
9218868437227407266,"Comunidad de 09076, 09290, 09578, 09606 y 09822",,,,0,0,34070953007,latlong de geonames
9218868437227407266,"Comunidad de 09076, 09290, 09578 y 09822",,,,0,0,34070953008,latlong de geonames
9218868437227407266,Cabeza Alta,,,,-6.93588,37.17596,34070953009,latlong de geonames
9218868437227407266,"Comunidad de 09076, 09150 y 09578",,,,0,0,34070953010,latlong de geonames
9218868437227407266,"Comunidad de 09076, 09498 y 09578",,,,0,0,34070953011,latlong de geonames
9218868437227407266,"Comunidad de 09076, 09578, 09606 y 09822",,,,0,0,34070953012,latlong de geonames
9218868437227407266,Comunidad de Barbadillo del Pez y Jaramillo de la Fuente,,,,0,0,34070953013,latlong de geonames
9218868437227407266,Comunidad de Barbadillo del Pez y Riocavado de la Sierra,,,,0,0,34070953014,latlong de geonames
9218868437227407266,Comunidad de Bascuñana y Viloria de Rioja,,,,0,0,34070953015,latlong de geonames
9218868437227407266,Monte Revenga,,,,0,0,34070953016,latlong de geonames
9218868437227407266,Comunidad de Canicosa de la Sierra y Vilviestre del Pinar,,,,0,0,34070953017,latlong de geonames
9218868437227407266,Comunidad de Canicosa de la Sierra y Casarejos,,,,0,0,34070953018,latlong de geonames
9218868437227407266,Soncarazo,,,,0,0,34070953019,latlong de geonames
9218868437227407266,Comunidad de Fuente Carazo,,,,0,0,34070953020,latlong de geonames
9218868437227407266,"Ledanía de 09162, 09290, 09412 y 09606",,,,0,0,34070953021,latlong de geonames
9218868437227407266,Dehesa de San Felices,,,,0,0,34070953022,latlong de geonames
9218868437227407266,Comunidad de Cilleruelo de Arriba y Pineda Trasmonte,,,,0,0,34070953023,latlong de geonames
9218868437227407266,"Comunidad de Covarrubias, Quintanilla del Coco y Retuerta",,,,0,0,34070953024,latlong de geonames
9218868437227407266,Comunidad de Cubillo del Campo y Hontoria de la Cantera,,,,0,0,34070953025,latlong de geonames
9218868437227407266,Comunidad de Gete y Hacinas,,,,0,0,34070953026,latlong de geonames
9218868437227407266,Ledanía de Hacinas y Salas de los Infantes,,,,0,0,34070953027,latlong de geonames
9218868437227407266,"Ledanía de Hacinas, Salas de los Infantes y Villanueva de Carazo",,,,0,0,34070953028,latlong de geonames
9218868437227407266,"Comunidad de 09314, 09374, 09356 y 09126",,,,0,0,34070953029,latlong de geonames
9218868437227407266,Valle de las Venadas,,,,0,0,34070953031,latlong de geonames
9218868437227407266,"Comunidad de Palacios de la Sierra, Vilviestre del Pinar y San Leonardo de Yagüe",,,,0,0,34070953032,latlong de geonames
9218868437227407266,Comunidad de Quintanaortuño y Merindad de Río Ubierna,,,,0,0,34070953033,latlong de geonames
9218868437227407266,Comunidad de Quintanar de la Sierra y Vilviestre del Pinar,,,,0,0,34070953034,latlong de geonames
9218868437227407266,Comunidad de Revilla del Campo y Torrelara,,,,0,0,34070953035,latlong de geonames
9218868437227407266,"Ledanía de Castrillo de la Reina, Hacinas y Salas de los Infantes",,,,0,0,34070953036,latlong de geonames
9218868437227407266,Comunidad de la Aynosa,,,,0,0,34070953037,latlong de geonames
9218868437227407266,Comunidad de Villagalijo y San Vicente del Valle,,,,0,0,34070953038,latlong de geonames
9218868437227407266,Comunidad de Tardajos y Las Quintanillas,,,,0,0,34070953039,latlong de geonames
9218868437227407266,Comunidad de Tardajos y Rabé de las Calzadas,,,,0,0,34070953040,latlong de geonames
9218868437227407266,Comunidad de Tinieblas de la Sierra y San Millán de Lara,,,,0,0,34070953041,latlong de geonames
9218868437227407266,Comunidad de Vilviestre del Pinar y Palacios de la Sierra,,,,0,0,34070953042,latlong de geonames
9218868437227407266,Comunidad de Villoruebo y Torrelara,,,,0,0,34070953043,latlong de geonames
9218868437227407266,Comunidad de Vizcaínos y Jaramillo de la Fuente,,,,0,0,34070953044,latlong de geonames
9218868437227407266,Comunidad de Quintanilla del Agua y Tordueles y Puentedura,,,,0,0,34070953045,latlong de geonames
9218868437227407266,"Comunidad de Merindad de Río Ubierna, Quintanilla Vivar y Sotragero",,,,0,0,34070953046,latlong de geonames
9218868437227407266,Monte de la Mata,,,,0,0,34070953073,latlong de geonames
9218868437227407266,La Antigua,,,,-14.01379,28.42307,34072424005,latlong de geonames
9218868437227407266,La Bañeza,,,,-5.89772,42.30026,34072424010,latlong de geonames
9218868437227407266,Los Barrios de Luna,,,,-5.86233,42.84399,34072424012,latlong de geonames
9218868437227407266,El Burgo Ranero,,,,-5.21919,42.42225,34072424024,latlong de geonames
9218868437227407266,La Ercina,,,,-5.2184,42.81348,34072424068,latlong de geonames
9218868437227407266,Las Omañas,,,,-5.87141,42.68145,34072424104,latlong de geonames
9218868437227407266,La Pola de Gordón,,,,-5.66768,42.85658,34072424114,latlong de geonames
9218868437227407266,La Robla,,,,-5.62904,42.80302,34072424134,latlong de geonames
9218868437227407266,La Vecilla,,,,-5.40643,42.84852,34072424193,latlong de geonames
9218868437227407266,Toral de los Vados,,,,-6.7771,42.54311,34072424206,latlong de geonames
9218868437227407266,Comunidad de Castrotierra de la Valduerna,,,,0,0,34072453051,latlong de geonames
9218868437227407266,Foncabada,,,,-5.45533,43.53405,34072453052,latlong de geonames
9218868437227407266,Comunidad de Soto de la Vega y Villazala,,,,0,0,34072453053,latlong de geonames
9218868437227407266,Mancomunidad de Villagatón y Quintana del Castillo,,,,0,0,34072453054,latlong de geonames
9218868437227407266,La Vid de Ojeda,,,,-4.40099,42.65609,34073434093,latlong de geonames
9218868437227407266,La Puebla de Valdavia,,,,-4.60926,42.67454,34073434140,latlong de geonames
9218868437227407266,La Serna,,,,-4.66399,42.41631,34073434175,latlong de geonames
9218868437227407266,La Pernía,,,,-4.47605,42.99581,34073434904,latlong de geonames
9218868437227407266,La Alameda de Gardón,,,,-6.75841,40.65071,34073737005,latlong de geonames
9218868437227407266,La Alamedilla,,,,-6.82845,40.47245,34073737006,latlong de geonames
9218868437227407266,La Alberca,,,,-6.11107,40.48908,34073737010,latlong de geonames
9218868437227407266,La Alberguería de Argañán,,,,-6.81482,40.41302,34073737011,latlong de geonames
9218868437227407266,El Arco,,,,-5.82451,41.1109,34073737034,latlong de geonames
9218868437227407266,La Atalaya,,,,-6.41456,40.50255,34073737037,latlong de geonames
9218868437227407266,La Bastida,,,,-6.0589,40.58536,34073737045,latlong de geonames
9218868437227407266,El Bodón,,,,-6.57522,40.48791,34073737054,latlong de geonames
9218868437227407266,La Bouza,,,,-6.79547,40.83621,34073737056,latlong de geonames
9218868437227407266,El Cabaco,,,,-6.14535,40.56637,34073737061,latlong de geonames
9218868437227407266,La Cabeza de Béjar,,,,-5.66259,40.49574,34073737063,latlong de geonames
9218868437227407266,La Calzada de Béjar,,,,-5.81809,40.41182,34073737071,latlong de geonames
9218868437227407266,El Campo de Peñaranda,,,,-5.25799,40.98491,34073737077,latlong de geonames
9218868437227407266,Las Casas del Conde,,,,-6.04089,40.50753,34073737090,latlong de geonames
9218868437227407266,El Cerro,,,,-6.93692,37.73537,34073737102,latlong de geonames
9218868437227407266,El Cubo de Don Sancho,,,,-6.30536,40.89089,34073737113,latlong de geonames
9218868437227407266,La Encina,,,,-0.95374,38.76608,34073737119,latlong de geonames
9218868437227407266,La Fregeneda,,,,-6.86829,40.98866,34073737132,latlong de geonames
9218868437227407266,La Fuente de San Esteban,,,,-6.25852,40.80161,34073737135,latlong de geonames
9218868437227407266,La Hoya,,,,-1.15,38.25,34073737163,latlong de geonames
9218868437227407266,El Maíllo,,,,-6.16667,40.56667,34073737177,latlong de geonames
9218868437227407266,El Manzano,,,,-6.2886,41.17421,34073737180,latlong de geonames
9218868437227407266,La Mata de Ledesma,,,,-5.97101,41.00054,34073737186,latlong de geonames
9218868437227407266,La Maya,,,,-5.61307,40.68711,34073737188,latlong de geonames
9218868437227407266,El Milano,,,,-6.59751,41.10429,34073737191,latlong de geonames
9218868437227407266,La Orbada,,,,-5.48315,41.10285,34073737224,latlong de geonames
9218868437227407266,El Payo,,,,-6.72701,40.28681,34073737234,latlong de geonames
9218868437227407266,El Pedroso de la Armuña,,,,-5.39901,41.08074,34073737239,latlong de geonames
9218868437227407266,La Peña,,,,-0.40662,42.26208,34073737243,latlong de geonames
9218868437227407266,El Pino de Tormes,,,,-5.79347,41.0394,34073737253,latlong de geonames
9218868437227407266,La Redonda,,,,-6.74872,40.90856,34073737266,latlong de geonames
9218868437227407266,La Rinconada de la Sierra,,,,-6.02052,40.61275,34073737268,latlong de geonames
9218868437227407266,La Sagrada,,,,-6.13333,41.15,34073737273,latlong de geonames
9218868437227407266,Los Santos,,,,-4.69951,40.65724,34073737300,latlong de geonames
9218868437227407266,El Sahugo,,,,-6.54622,40.41627,34073737303,latlong de geonames
9218868437227407266,La Sierpe,,,,-5.85656,40.64584,34073737309,latlong de geonames
9218868437227407266,La Tala,,,,-5.53719,40.58944,34073737315,latlong de geonames
9218868437227407266,El Tejado,,,,-5.89097,40.87379,34073737319,latlong de geonames
9218868437227407266,El Tornadizo,,,,-5.8915,40.54296,34073737325,latlong de geonames
9218868437227407266,Las Veguillas,,,,-5.8327,40.71583,34073737346,latlong de geonames
9218868437227407266,La Vellés,,,,-5.56824,41.07399,34073737347,latlong de geonames
9218868437227407266,La Vídola,,,,-6.48733,41.15434,34073737349,latlong de geonames
9218868437227407266,La Zarza de Pumareda,,,,-6.62747,41.16191,34073737381,latlong de geonames
9218868437227407266,Coto Mancomunado,,,,0,0,34073753071,latlong de geonames
9218868437227407266,El Espinar,,,,-3.30739,41.07229,34074040076,latlong de geonames
9218868437227407266,Los Huertos,,,,-4.21877,41.01004,34074040103,latlong de geonames
9218868437227407266,La Lastrilla,,,,-4.10468,40.96817,34074040112,latlong de geonames
9218868437227407266,La Losa,,,,-4.16387,40.8536,34074040113,latlong de geonames
9218868437227407266,La Matilla,,,,-13.95497,28.55686,34074040125,latlong de geonames
9218868437227407266,Real Sitio de San Ildefonso,,,,-4.00685,40.90182,34074040181,latlong de geonames
9218868437227407266,Comunidad de Sepúlveda y Riaza,,,,0,0,34074053074,latlong de geonames
9218868437227407266,Las Aldehuelas,,,,-2.36499,41.9947,34074242014,latlong de geonames
9218868437227407266,La Losilla,,,,-2.27853,41.8726,34074242106,latlong de geonames
9218868437227407266,La Póveda de Soria,,,,-2.50444,42.01226,34074242141,latlong de geonames
9218868437227407266,Los Rábanos,,,,-2.47647,41.71803,34074242149,latlong de geonames
9218868437227407266,La Riba de Escalote,,,,-2.79629,41.35182,34074242157,latlong de geonames
9218868437227407266,El Royo,,,,-2.64619,41.90871,34074242160,latlong de geonames
9218868437227407266,Los Villares de Soria,,,,-2.3551,41.86497,34074242211,latlong de geonames
9218868437227407266,El Campillo,,,,-3.0457,38.274,34074747031,latlong de geonames
9218868437227407266,La Mudarra,,,,-4.94506,41.77988,34074747099,latlong de geonames
9218868437227407266,La Parrilla,,,,-4.5336,41.53633,34074747110,latlong de geonames
9218868437227407266,La Pedraja de Portillo,,,,-4.64639,41.47124,34074747111,latlong de geonames
9218868437227407266,La Seca,,,,-4.90552,41.41364,34074747158,latlong de geonames
9218868437227407266,La Unión de Campos,,,,-5.32607,42.0776,34074747176,latlong de geonames
9218868437227407266,La Zarza,,,,-4.70742,37.58471,34074747232,latlong de geonames
9218868437227407266,La Bóveda de Toro,,,,-5.40995,41.34441,34074949024,latlong de geonames
9218868437227407266,Corrales del Vino,,,,-5.7243,41.32092,34074949054,latlong de geonames
9218868437227407266,El Cubo de Tierra del Vino,,,,-5.71052,41.25575,34074949058,latlong de geonames
9218868437227407266,La Hiniesta,,,,-5.79885,41.55241,34074949095,latlong de geonames
9218868437227407266,El Maderal,,,,-5.62312,41.28177,34074949102,latlong de geonames
9218868437227407266,El Pego,,,,-5.46711,41.334,34074949146,latlong de geonames
9218868437227407266,El Perdigón,,,,-5.75277,41.41267,34074949151,latlong de geonames
9218868437227407266,El Piñero,,,,-5.58841,41.3532,34074949158,latlong de geonames
9218868437227407266,La Torre del Valle,,,,-5.72366,42.09056,34074949220,latlong de geonames
9218868437227407266,El Ballestero,,,,-2.45608,38.84179,34080202014,latlong de geonames
9218868437227407266,El Bonillo,,,,-2.54048,38.95048,34080202019,latlong de geonames
9218868437227407266,La Gineta,,,,-1.99603,39.11452,34080202035,latlong de geonames
9218868437227407266,La Herrera,,,,-3.16497,43.20361,34080202038,latlong de geonames
9218868437227407266,La Recueja,,,,-1.48333,39.18333,34080202066,latlong de geonames
9218868437227407266,La Roda,,,,-2.15723,39.20735,34080202069,latlong de geonames
9218868437227407266,Dehesa de Santiago,,,,0,0,34080253003,latlong de geonames
9218868437227407266,Agudo,,,,-4.87133,38.98183,34081313002,latlong de geonames
9218868437227407266,Los Cortijos,,,,-1.48473,40.16497,34081313036,latlong de geonames
9218868437227407266,Las Labores,,,,-3.51872,39.27459,34081313050,latlong de geonames
9218868437227407266,Los Pozuelos de Calatrava,,,,-4.18952,38.92265,34081313067,latlong de geonames
9218868437227407266,La Solana,,,,-0.91667,38.31667,34081313079,latlong de geonames
9218868437227407266,El Robledo,,,,-4.28099,39.21898,34081313901,latlong de geonames
9218868437227407266,El Acebrón,,,,-2.98321,39.90866,34081616002,latlong de geonames
9218868437227407266,La Alberca de Záncara,,,,-2.49272,39.51458,34081616007,latlong de geonames
9218868437227407266,La Almarcha,,,,-2.38011,39.68626,34081616015,latlong de geonames
9218868437227407266,El Cañavate,,,,-2.30342,39.54285,34081616049,latlong de geonames
9218868437227407266,La Cierva,,,,-1.85,40.05,34081616074,latlong de geonames
9218868437227407266,La Frontera,,,,-6.13606,36.68645,34081616085,latlong de geonames
9218868437227407266,El Herrumblar,,,,-1.61667,39.4,34081616098,latlong de geonames
9218868437227407266,La Hinojosa,,,,-2.41403,39.72778,34081616099,latlong de geonames
9218868437227407266,Los Hinojosos,,,,-2.82572,39.60417,34081616100,latlong de geonames
9218868437227407266,El Hito,,,,-2.71536,39.85927,34081616101,latlong de geonames
9218868437227407266,Las Majadas,,,,-2.02146,40.29732,34081616121,latlong de geonames
9218868437227407266,Las Mesas,,,,-2.76524,39.38871,34081616124,latlong de geonames
9218868437227407266,La Parra de las Vegas,,,,-2.20443,39.86882,34081616152,latlong de geonames
9218868437227407266,El Pedernoso,,,,-2.74642,39.4858,34081616153,latlong de geonames
9218868437227407266,Las Pedroñeras,,,,-2.67394,39.44997,34081616154,latlong de geonames
9218868437227407266,El Peral,,,,-1.9,39.5,34081616155,latlong de geonames
9218868437227407266,La Peraleja,,,,-2.55611,40.23527,34081616156,latlong de geonames
9218868437227407266,La Pesquera,,,,-1.56667,39.58333,34081616157,latlong de geonames
9218868437227407266,El Picazo,,,,-2.08333,39.45,34081616158,latlong de geonames
9218868437227407266,Pozorrubio de Santiago,,,,-2.94936,39.81645,34081616167,latlong de geonames
9218868437227407266,El Pozuelo,,,,-3.15388,36.74862,34081616169,latlong de geonames
9218868437227407266,El Provencio,,,,-2.57448,39.3774,34081616171,latlong de geonames
9218868437227407266,El Valle de Altomira,,,,-2.77016,40.22701,34081616173,latlong de geonames
9218868437227407266,Las Valeras,,,,-16.38453,28.33031,34081616903,latlong de geonames
9218868437227407266,Arcas,,,,-2.11667,39.98333,34081616905,latlong de geonames
9218868437227407266,Los Valdecolmenas,,,,-2.47033,40.11547,34081616906,latlong de geonames
9218868437227407266,La Bodera,,,,-2.88719,41.13547,34081919052,latlong de geonames
9218868437227407266,El Cardoso de la Sierra,,,,-3.46517,41.09668,34081919067,latlong de geonames
9218868437227407266,El Casar,,,,-5.92513,38.53089,34081919071,latlong de geonames
9218868437227407266,El Cubillo de Uceda,,,,-3.40375,40.82159,34081919102,latlong de geonames
9218868437227407266,La Huerce,,,,-3.16667,41.15,34081919146,latlong de geonames
9218868437227407266,Las Inviernas,,,,-2.6702,40.87234,34081919154,latlong de geonames
9218868437227407266,La Mierla,,,,-3.23277,40.93518,34081919182,latlong de geonames
9218868437227407266,La Miñosa,,,,-2.93226,41.17948,34081919185,latlong de geonames
9218868437227407266,Las Navas de Jadraque,,,,-3.08536,41.10523,34081919197,latlong de geonames
9218868437227407266,El Olivar,,,,-2.74957,40.60664,34081919200,latlong de geonames
9218868437227407266,La Olmeda de Jadraque,,,,-2.74147,41.12695,34081919202,latlong de geonames
9218868437227407266,El Ordial,,,,-3.11667,41.13333,34081919203,latlong de geonames
9218868437227407266,El Pedregal,,,,-1.57033,40.77934,34081919213,latlong de geonames
9218868437227407266,El Pobo de Dueñas,,,,-1.64979,40.77669,34081919222,latlong de geonames
9218868437227407266,El Recuenco,,,,-2.33965,40.61538,34081919232,latlong de geonames
9218868437227407266,El Sotillo,,,,-2.6359,40.88151,34081919260,latlong de geonames
9218868437227407266,La Toba,,,,-2.56495,38.18376,34081919269,latlong de geonames
9218868437227407266,La Yunta,,,,-1.68387,40.91506,34081919332,latlong de geonames
9218868437227407266,Aldovera,,,,-2.85,40.26667,34081953047,latlong de geonames
9218868437227407266,El Campillo de la Jara,,,,-5.05532,39.58918,34084545033,latlong de geonames
9218868437227407266,El Carpio de Tajo,,,,-4.45388,39.88796,34084545037,latlong de geonames
9218868437227407266,El Casar de Escalona,,,,-4.52507,40.0464,34084545040,latlong de geonames
9218868437227407266,Los Cerralbos,,,,-4.56826,39.98461,34084545048,latlong de geonames
9218868437227407266,La Estrella,,,,-5.09543,39.68937,34084545065,latlong de geonames
9218868437227407266,La Guardia,,,,-3.47604,39.78795,34084545071,latlong de geonames
9218868437227407266,Las Herencias,,,,-4.92246,39.86884,34084545072,latlong de geonames
9218868437227407266,La Iglesuela,,,,-4.75162,40.23277,34084545079,latlong de geonames
9218868437227407266,La Mata,,,,-0.68222,37.97872,34084545095,latlong de geonames
9218868437227407266,La Nava de Ricomalillo,,,,-4.99113,39.64961,34084545108,latlong de geonames
9218868437227407266,Los Navalmorales,,,,-4.64227,39.72526,34084545112,latlong de geonames
9218868437227407266,Los Navalucillos,,,,-4.64205,39.66665,34084545113,latlong de geonames
9218868437227407266,La Puebla de Almoradiel,,,,-3.11782,39.59862,34084545135,latlong de geonames
9218868437227407266,La Puebla de Montalbán,,,,-4.35917,39.86297,34084545136,latlong de geonames
9218868437227407266,La Pueblanueva,,,,-4.67933,39.91208,34084545137,latlong de geonames
9218868437227407266,El Puente del Arzobispo,,,,-5.17178,39.80174,34084545138,latlong de geonames
9218868437227407266,El Real de San Vicente,,,,-4.69095,40.13561,34084545144,latlong de geonames
9218868437227407266,El Romeral,,,,-3.43379,39.70744,34084545149,latlong de geonames
9218868437227407266,El Toboso,,,,-2.99726,39.51333,34084545167,latlong de geonames
9218868437227407266,La Torre de Esteban Hambrán,,,,-4.21549,40.16935,34084545171,latlong de geonames
9218868437227407266,Las Ventas con Peña Aguilera,,,,-4.23208,39.56968,34084545182,latlong de geonames
9218868437227407266,Las Ventas de Retamosa,,,,-4.11455,40.15526,34084545183,latlong de geonames
9218868437227407266,Las Ventas de San Julián,,,,-5.29512,40.00894,34084545184,latlong de geonames
9218868437227407266,La Villa de Don Fadrique,,,,-3.21915,39.61505,34084545186,latlong de geonames
9218868437227407266,El Viso de San Juan,,,,-3.91817,40.14154,34084545199,latlong de geonames
9218868437227407266,Los Yébenes,,,,-3.87058,39.58158,34084545200,latlong de geonames
9218868437227407266,L'Ametlla del Vallès,,,,2.26667,41.66667,34090808005,latlong de geonames
9218868437227407266,El Bruc,,,,1.78333,41.58333,34090808025,latlong de geonames
9218868437227407266,El Brull,,,,2.30531,41.81657,34090808026,latlong de geonames
9218868437227407266,Les Cabanyes,,,,1.7,41.36667,34090808027,latlong de geonames
9218868437227407266,L'Espunyola,,,,1.75294,42.04174,34090808078,latlong de geonames
9218868437227407266,L'Estany,,,,2.11223,41.86924,34090808079,latlong de geonames
9218868437227407266,Les Franqueses del Vallès,,,,2.29305,41.62263,34090808086,latlong de geonames
9218868437227407266,La Garriga,,,,2.28333,41.68333,34090808088,latlong de geonames
9218868437227407266,La Granada,,,,-3.60667,37.18817,34090808094,latlong de geonames
9218868437227407266,L'Hospitalet de Llobregat,,,,2.10028,41.35967,34090808101,latlong de geonames
9218868437227407266,La Llacuna,,,,1.53241,41.47145,34090808104,latlong de geonames
9218868437227407266,La Llagosta,,,,2.19297,41.51435,34090808105,latlong de geonames
9218868437227407266,Les Masies de Roda,,,,2.32282,41.98645,34090808116,latlong de geonames
9218868437227407266,Les Masies de Voltregà,,,,2.23546,42.01944,34090808117,latlong de geonames
9218868437227407266,El Masnou,,,,2.3188,41.47978,34090808118,latlong de geonames
9218868437227407266,La Nou de Berguedà,,,,1.88333,42.16667,34090808142,latlong de geonames
9218868437227407266,El Papiol,,,,2.01667,41.43333,34090808158,latlong de geonames
9218868437227407266,Els Hostalets de Pierola,,,,1.8015,41.53913,34090808162,latlong de geonames
9218868437227407266,El Pla del Penedès,,,,1.71667,41.41667,34090808164,latlong de geonames
9218868437227407266,La Pobla de Claramunt,,,,1.67712,41.55423,34090808165,latlong de geonames
9218868437227407266,La Pobla de Lillet,,,,1.97405,42.2449,34090808166,latlong de geonames
9218868437227407266,El Prat de Llobregat,,,,2.09472,41.32784,34090808169,latlong de geonames
9218868437227407266,Els Prats de Rei,,,,1.54319,41.70592,34090808170,latlong de geonames
9218868437227407266,La Quar,,,,1.96377,42.099,34090808177,latlong de geonames
9218868437227407266,La Roca del Vallès,,,,2.33333,41.58333,34090808181,latlong de geonames
9218868437227407266,El Pont de Vilomara i Rocafort,,,,1.90889,41.70726,34090808182,latlong de geonames
9218868437227407266,L'Esquirol,,,,2.36667,42.03333,34090808254,latlong de geonames
9218868437227407266,La Torre de Claramunt,,,,1.66117,41.53044,34090808286,latlong de geonames
9218868437227407266,La Palma de Cervelló,,,,1.96316,41.41031,34090808905,latlong de geonames
9218868437227407266,El Far d'Empordà,,,,2.99588,42.25195,34091717005,latlong de geonames
9218868437227407266,L'Armentera,,,,3.07439,42.17153,34091717011,latlong de geonames
9218868437227407266,La Vajol,,,,2.80016,42.4038,34091717014,latlong de geonames
9218868437227407266,La Bisbal d'Empordà,,,,3.05,41.95,34091717022,latlong de geonames
9218868437227407266,Calonge,,,,3.20335,39.40039,34091717034,latlong de geonames
9218868437227407266,L'Escala,,,,3.13261,42.12562,34091717062,latlong de geonames
9218868437227407266,La Jonquera,,,,2.87464,42.41636,34091717086,latlong de geonames
9218868437227407266,Les Llosses,,,,2.11667,42.15,34091717096,latlong de geonames
9218868437227407266,La Pera,,,,2.97409,42.02052,34091717130,latlong de geonames
9218868437227407266,Les Planes d'Hostoles,,,,2.54093,42.05669,34091717133,latlong de geonames
9218868437227407266,Les Preses,,,,2.46025,42.14508,34091717139,latlong de geonames
9218868437227407266,El Port de la Selva,,,,3.20492,42.33691,34091717140,latlong de geonames
9218868437227407266,La Selva de Mar,,,,3.18698,42.32416,34091717188,latlong de geonames
9218868437227407266,La Cellera de Ter,,,,2.62402,41.96919,34091717189,latlong de geonames
9218868437227407266,La Tallada d'Empordà,,,,3.05583,42.0802,34091717195,latlong de geonames
9218868437227407266,La Vall d'en Bas,,,,2.46667,42.26667,34091717207,latlong de geonames
9218868437227407266,La Vall de Bianya,,,,2.45674,42.22348,34091717208,latlong de geonames
9218868437227407266,Els Alamús,,,,0.78997,41.59726,34092525004,latlong de geonames
9218868437227407266,L'Albagés,,,,0.75,41.45,34092525006,latlong de geonames
9218868437227407266,L'Albi,,,,0.93333,41.41667,34092525009,latlong de geonames
9218868437227407266,El Pont de Bar,,,,1.62172,42.37354,34092525030,latlong de geonames
9218868437227407266,La Sentiu de Sió,,,,0.86948,41.79807,34092525035,latlong de geonames
9218868437227407266,Les Avellanes i Santa Linya,,,,0.79763,41.92276,34092525037,latlong de geonames
9218868437227407266,La Baronia de Rialb,,,,1.19489,41.93182,34092525042,latlong de geonames
9218868437227407266,La Vall de Boí,,,,0.80415,42.50368,34092525043,latlong de geonames
9218868437227407266,Es Bòrdes,,,,0.71667,42.73333,34092525057,latlong de geonames
9218868437227407266,Les Borges Blanques,,,,0.86667,41.51667,34092525058,latlong de geonames
9218868437227407266,El Cogul,,,,0.68333,41.46667,34092525076,latlong de geonames
9218868437227407266,L'Espluga Calba,,,,1.00489,41.49628,34092525081,latlong de geonames
9218868437227407266,La Floresta,,,,0.91667,41.51667,34092525092,latlong de geonames
9218868437227407266,La Fuliola,,,,1.01746,41.71358,34092525096,latlong de geonames
9218868437227407266,La Granadella,,,,0.66667,41.35,34092525101,latlong de geonames
9218868437227407266,La Granja d'Escarp,,,,0.38404,41.40934,34092525102,latlong de geonames
9218868437227407266,La Molsosa,,,,1.52493,41.78072,34092525136,latlong de geonames
9218868437227407266,Les Oluges,,,,1.33927,41.69444,34092525152,latlong de geonames
9218868437227407266,Els Omellons,,,,0.96667,41.5,34092525153,latlong de geonames
9218868437227407266,Els Omells de na Gaia,,,,1.07524,41.50041,34092525154,latlong de geonames
9218868437227407266,El Palau d'Anglesola,,,,0.88333,41.65,34092525158,latlong de geonames
9218868437227407266,La Coma i la Pedra,,,,1.58688,42.17369,34092525163,latlong de geonames
9218868437227407266,El Poal,,,,0.86667,41.68333,34092525168,latlong de geonames
9218868437227407266,La Pobla de Cérvoles,,,,0.87829,41.39251,34092525169,latlong de geonames
9218868437227407266,La Pobla de Segur,,,,0.96667,42.25,34092525171,latlong de geonames
9218868437227407266,El Pont de Suert,,,,0.74171,42.40815,34092525173,latlong de geonames
9218868437227407266,La Portella,,,,0.65,41.73333,34092525174,latlong de geonames
9218868437227407266,La Seu d'Urgell,,,,1.46144,42.35877,34092525203,latlong de geonames
9218868437227407266,El Soleràs,,,,0.68333,41.41667,34092525206,latlong de geonames
9218868437227407266,Els Torms,,,,0.71667,41.38333,34092525224,latlong de geonames
9218868437227407266,La Torre de Cabdella,,,,0.98238,42.42216,34092525227,latlong de geonames
9218868437227407266,Les Valls de Valira,,,,1.45775,42.41725,34092525239,latlong de geonames
9218868437227407266,El Vilosell,,,,0.95,41.38333,34092525253,latlong de geonames
9218868437227407266,La Guingueta d'Àneu,,,,1.15194,42.6072,34092525903,latlong de geonames
9218868437227407266,Les Valls d'Aguilar,,,,1.2612,42.2977,34092525906,latlong de geonames
9218868437227407266,La Vansa i Fórnols,,,,1.49487,42.24173,34092525909,latlong de geonames
9218868437227407266,Els Plans de Sió,,,,1.20484,41.73087,34092525911,latlong de geonames
9218868437227407266,Comunidad de El Pont de Bar y Cava,,,,0,0,34092553055,latlong de geonames
9218868437227407266,L'Albiol,,,,1.1,41.25,34094343003,latlong de geonames
9218868437227407266,L'Aleixar,,,,1.05,41.2,34094343007,latlong de geonames
9218868437227407266,L'Ametlla de Mar,,,,0.8,40.9,34094343013,latlong de geonames
9218868437227407266,L'Arboç,,,,1.6,41.26667,34094343016,latlong de geonames
9218868437227407266,L'Argentera,,,,0.91667,41.13333,34094343017,latlong de geonames
9218868437227407266,La Bisbal de Falset,,,,0.71667,41.26667,34094343027,latlong de geonames
9218868437227407266,La Bisbal del Penedès,,,,1.48333,41.28333,34094343028,latlong de geonames
9218868437227407266,Les Borges del Camp,,,,1.01667,41.16667,34094343031,latlong de geonames
9218868437227407266,El Catllar,,,,1.31667,41.16667,34094343043,latlong de geonames
9218868437227407266,La Sénia,,,,0.28333,40.63333,34094343044,latlong de geonames
9218868437227407266,L'Espluga de Francolí,,,,1.09846,41.39497,34094343054,latlong de geonames
9218868437227407266,La Fatarella,,,,0.48333,41.16667,34094343056,latlong de geonames
9218868437227407266,La Febró,,,,1,41.26667,34094343057,latlong de geonames
9218868437227407266,La Figuera,,,,0.73075,41.21617,34094343058,latlong de geonames
9218868437227407266,La Galera,,,,0.46342,40.68149,34094343063,latlong de geonames
9218868437227407266,Els Garidells,,,,1.25,41.2,34094343066,latlong de geonames
9218868437227407266,Els Guiamets,,,,0.75,41.1,34094343070,latlong de geonames
9218868437227407266,El Lloar,,,,0.74406,41.19209,34094343072,latlong de geonames
9218868437227407266,La Masó,,,,1.21667,41.23333,34094343080,latlong de geonames
9218868437227407266,El Masroig,,,,0.73333,41.13333,34094343082,latlong de geonames
9218868437227407266,El Milà,,,,1.2,41.25,34094343083,latlong de geonames
9218868437227407266,El Molar,,,,-3.57969,40.73215,34094343085,latlong de geonames
9218868437227407266,El Montmell,,,,1.49613,41.33509,34094343090,latlong de geonames
9218868437227407266,El Morell,,,,1.21667,41.2,34094343095,latlong de geonames
9218868437227407266,La Morera de Montsant,,,,0.83942,41.264,34094343096,latlong de geonames
9218868437227407266,La Nou de Gaià,,,,1.38333,41.18333,34094343097,latlong de geonames
9218868437227407266,La Palma d'Ebre,,,,0.66641,41.2722,34094343099,latlong de geonames
9218868437227407266,Els Pallaresos,,,,1.2709,41.17491,34094343100,latlong de geonames
9218868437227407266,El Perelló,,,,0.71125,40.87431,34094343104,latlong de geonames
9218868437227407266,Les Piles,,,,1.35,41.5,34094343105,latlong de geonames
9218868437227407266,El Pinell de Brai,,,,0.5001,41.01569,34094343106,latlong de geonames
9218868437227407266,El Pla de Santa Maria,,,,1.30467,41.34153,34094343108,latlong de geonames
9218868437227407266,La Pobla de Mafumet,,,,1.21667,41.18333,34094343109,latlong de geonames
9218868437227407266,La Pobla de Massaluca,,,,0.35,41.18333,34094343110,latlong de geonames
9218868437227407266,La Pobla de Montornès,,,,1.41389,41.17768,34094343111,latlong de geonames
9218868437227407266,El Pont d'Armentera,,,,1.34139,41.40815,34094343113,latlong de geonames
9218868437227407266,La Riba,,,,-5.55348,43.34494,34094343124,latlong de geonames
9218868437227407266,La Riera de Gaià,,,,1.36667,41.16667,34094343126,latlong de geonames
9218868437227407266,Roda de Berà,,,,1.45893,41.18645,34094343131,latlong de geonames
9218868437227407266,El Rourell,,,,1.21667,41.21667,34094343134,latlong de geonames
9218868437227407266,La Secuita,,,,1.27996,41.2046,34094343144,latlong de geonames
9218868437227407266,La Selva del Camp,,,,1.13883,41.21484,34094343145,latlong de geonames
9218868437227407266,La Torre de Fontaubella,,,,0.86667,41.11667,34094343151,latlong de geonames
9218868437227407266,La Torre de l'Espanyol,,,,0.63333,41.18333,34094343152,latlong de geonames
9218868437227407266,El Vendrell,,,,1.53333,41.21667,34094343163,latlong de geonames
9218868437227407266,La Vilella Alta,,,,0.78333,41.21667,34094343173,latlong de geonames
9218868437227407266,La Vilella Baixa,,,,0.76667,41.21667,34094343174,latlong de geonames
9218868437227407266,L'Aldea,,,,0.61414,40.76183,34094343904,latlong de geonames
9218868437227407266,L'Ampolla,,,,0.71008,40.81235,34094343906,latlong de geonames
9218868437227407266,La Canonja,,,,1.18065,41.1211,34094343907,latlong de geonames
9218868437227407266,l'Atzúbia,,,,0,0,34100303001,latlong de geonames
9218868437227407266,l'Alfàs del Pi,,,,-0.10321,38.58055,34100303011,latlong de geonames
9218868437227407266,Alicante/Alacant,,,,-0.48149,38.34517,34100303014,latlong de geonames
9218868437227407266,l'Alqueria d'Asnar,,,,-0.41883,38.77024,34100303017,latlong de geonames
9218868437227407266,Benitachell/el Poble Nou de Benitatxell,,,,0.14354,38.73273,34100303042,latlong de geonames
9218868437227407266,Calp,,,,0.0445,38.6447,34100303047,latlong de geonames
9218868437227407266,el Campello,,,,-0.39774,38.42885,34100303050,latlong de geonames
9218868437227407266,Campo de Mirra/el Camp de Mirra,,,,-0.79462,38.70001,34100303051,latlong de geonames
9218868437227407266,Elche/Elx,,,,-0.70107,38.26218,34100303065,latlong de geonames
9218868437227407266,el Castell de Guadalest,,,,-0.19908,38.6768,34100303075,latlong de geonames
9218868437227407266,el Fondó de les Neus/Hondón de las Nieves,,,,-0.89019,38.30756,34100303077,latlong de geonames
9218868437227407266,Lorcha/l'Orxa,,,,-0.3209,38.85519,34100303084,latlong de geonames
9218868437227407266,la Nucia,,,,-0.1269,38.61372,34100303094,latlong de geonames
9218868437227407266,el Pinós/Pinoso,,,,-1.04196,38.40164,34100303105,latlong de geonames
9218868437227407266,el Ràfol d'Almúnia,,,,-0.05171,38.8212,34100303110,latlong de geonames
9218868437227407266,la Romana,,,,-0.89862,38.36753,34100303114,latlong de geonames
9218868437227407266,Torremanzanas/la Torre de les Maçanes,,,,-0.41862,38.60641,34100303132,latlong de geonames
9218868437227407266,la Vall d'Alcalà,,,,-0.25014,38.79009,34100303134,latlong de geonames
9218868437227407266,la Vall d'Ebo,,,,-0.18622,38.80409,34100303135,latlong de geonames
9218868437227407266,la Vall de Laguar,,,,-0.12202,38.76872,34100303137,latlong de geonames
9218868437227407266,el Verger,,,,0.01034,38.84709,34100303138,latlong de geonames
9218868437227407266,Villajoyosa/la Vila Joiosa,,,,-0.23346,38.50754,34100303139,latlong de geonames
9218868437227407266,Els Poblets,,,,0.01854,38.85799,34100303901,latlong de geonames
9218868437227407266,Los Montesinos,,,,-0.74501,38.02822,34100303903,latlong de geonames
9218868437227407266,Alcalà de Xivert,,,,0.23333,40.3,34101212004,latlong de geonames
9218868437227407266,l'Alcora,,,,-0.2,40.06667,34101212005,latlong de geonames
9218868437227407266,Ares del Maestrat,,,,-0.09252,40.43593,34101212014,latlong de geonames
9218868437227407266,Benassal,,,,-0.1397,40.3769,34101212026,latlong de geonames
9218868437227407266,les Coves de Vinromà,,,,0.12084,40.30976,34101212050,latlong de geonames
9218868437227407266,Xert,,,,0.15831,40.51944,34101212052,latlong de geonames
9218868437227407266,la Jana,,,,-5.53441,39.00617,34101212070,latlong de geonames
9218868437227407266,la Llosa,,,,-0.2,39.76667,34101212074,latlong de geonames
9218868437227407266,la Mata de Morella,,,,-0.27231,40.61151,34101212075,latlong de geonames
9218868437227407266,Oropesa del Mar/Orpesa,,,,0.14115,40.09134,34101212085,latlong de geonames
9218868437227407266,Peníscola/Peñíscola,,,,0.40692,40.3574,34101212089,latlong de geonames
9218868437227407266,la Pobla de Benifassà,,,,0.19528,40.69089,34101212093,latlong de geonames
9218868437227407266,la Pobla Tornesa,,,,-0.01259,40.1076,34101212094,latlong de geonames
9218868437227407266,la Salzadella,,,,0.17509,40.41792,34101212098,latlong de geonames
9218868437227407266,la Serratella,,,,0,0,34101212103,latlong de geonames
9218868437227407266,El Toro,,,,-0.75,39.98333,34101212115,latlong de geonames
9218868437227407266,la Torre d'En Besora,,,,-0.07342,40.33456,34101212119,latlong de geonames
9218868437227407266,la Torre d'en Doménec,,,,0.07231,40.26906,34101212120,latlong de geonames
9218868437227407266,Useras/les Useres,,,,-0.13581,40.18188,34101212122,latlong de geonames
9218868437227407266,la Vall d'Uixó,,,,-0.24727,39.82357,34101212126,latlong de geonames
9218868437227407266,la Vilavella,,,,-0.19083,39.86341,34101212136,latlong de geonames
9218868437227407266,Vinaròs,,,,0.47559,40.47033,34101212138,latlong de geonames
9218868437227407266,Vistabella del Maestrat,,,,-0.29435,40.29617,34101212139,latlong de geonames
9218868437227407266,les Alqueries/Alquerías del Niño Perdido,,,,0,0,34101212901,latlong de geonames
9218868437227407266,Ademuz,,,,-1.22341,40.07506,34104646001,latlong de geonames
9218868437227407266,l'Alcúdia,,,,-0.50537,39.19717,34104646019,latlong de geonames
9218868437227407266,l'Alcúdia de Crespins,,,,-0.58333,38.96667,34104646020,latlong de geonames
9218868437227407266,Alfara de la Baronia,,,,-0.35224,39.77153,34104646024,latlong de geonames
9218868437227407266,l'Alqueria de la Comtessa,,,,-0.15,38.93333,34104646037,latlong de geonames
9218868437227407266,Benigànim,,,,-0.43333,38.95,34104646062,latlong de geonames
9218868437227407266,l'Eliana,,,,-0.53333,39.56667,34104646116,latlong de geonames
9218868437227407266,l'Ènova,,,,-0.48333,39.05,34104646119,latlong de geonames
9218868437227407266,la Font d'En Carròs,,,,-0.17063,38.91531,34104646127,latlong de geonames
9218868437227407266,la Font de la Figuera,,,,-0.88333,38.8,34104646128,latlong de geonames
9218868437227407266,la Granja de la Costera,,,,-0.56399,38.99802,34104646137,latlong de geonames
9218868437227407266,Guadasséquies,,,,-0.49256,38.92876,34104646138,latlong de geonames
9218868437227407266,la Llosa de Ranes,,,,-0.53935,39.02998,34104646157,latlong de geonames
9218868437227407266,Massalavés,,,,-0.5226,39.14377,34104646162,latlong de geonames
9218868437227407266,Montroi/Montroy,,,,-0.61667,39.33333,34104646176,latlong de geonames
9218868437227407266,l'Olleria,,,,-0.55,38.91667,34104646183,latlong de geonames
9218868437227407266,el Palomar,,,,-2.97138,37.95754,34104646189,latlong de geonames
9218868437227407266,Potries,,,,-0.18987,38.91631,34104646198,latlong de geonames
9218868437227407266,la Pobla de Farnals,,,,-0.32672,39.57782,34104646199,latlong de geonames
9218868437227407266,la Pobla del Duc,,,,-0.42715,38.90314,34104646200,latlong de geonames
9218868437227407266,la Pobla de Vallbona,,,,-0.55468,39.59747,34104646202,latlong de geonames
9218868437227407266,la Pobla Llarga,,,,-0.46667,39.08333,34104646203,latlong de geonames
9218868437227407266,el Puig de Santa María,,,,-0.30333,39.58869,34104646204,latlong de geonames
9218868437227407266,Rafelbunyol,,,,-0.33457,39.58876,34104646207,latlong de geonames
9218868437227407266,Real,,,,-3.92907,38.98626,34104646212,latlong de geonames
9218868437227407266,Sant Joanet,,,,-0.48675,39.07395,34104646222,latlong de geonames
9218868437227407266,Valencia,,,,-0.37739,39.46975,34104646250,latlong de geonames
9218868437227407266,Vilallonga/Villalonga,,,,-0.20795,38.88566,34104646255,latlong de geonames
9218868437227407266,La Yesa,,,,-0.95,39.88333,34104646262,latlong de geonames
9218868437227407266,La Albuera,,,,-6.82326,38.71779,34110606005,latlong de geonames
9218868437227407266,El Carrascalejo,,,,-6.33732,39.02282,34110606032,latlong de geonames
9218868437227407266,La Codosera,,,,-7.1733,39.20878,34110606037,latlong de geonames
9218868437227407266,La Coronada,,,,-5.66978,38.92045,34110606039,latlong de geonames
9218868437227407266,La Garrovilla,,,,-6.47747,38.91961,34110606058,latlong de geonames
9218868437227407266,La Haba,,,,-5.80034,38.91929,34110606061,latlong de geonames
9218868437227407266,La Lapa,,,,-6.51667,38.45,34110606071,latlong de geonames
9218868437227407266,La Morera,,,,-6.6531,38.54567,34110606089,latlong de geonames
9218868437227407266,La Nava de Santiago,,,,-6.50525,39.06328,34110606090,latlong de geonames
9218868437227407266,La Parra,,,,-6.6226,38.5212,34110606099,latlong de geonames
9218868437227407266,La Roca de la Sierra,,,,-6.68916,39.10966,34110606115,latlong de geonames
9218868437227407266,Los Santos de Maimona,,,,-6.38333,38.45,34110606122,latlong de geonames
9218868437227407266,La Zarza,,,,-4.70742,37.58471,34110606162,latlong de geonames
9218868437227407266,Guadiana del Caudillo,,,,-6.69092,38.92937,34110606903,latlong de geonames
9218868437227407266,La Aldea del Obispo,,,,-5.9169,39.57898,34111010013,latlong de geonames
9218868437227407266,Collado de la Vera,,,,-5.68148,40.0359,34111010065,latlong de geonames
9218868437227407266,La Cumbre,,,,-5.97635,39.4046,34111010069,latlong de geonames
9218868437227407266,La Garganta,,,,-5.82321,40.32888,34111010078,latlong de geonames
9218868437227407266,El Gordo,,,,-5.34343,39.8656,34111010085,latlong de geonames
9218868437227407266,La Granja,,,,-5.99481,40.23935,34111010086,latlong de geonames
9218868437227407266,La Pesga,,,,-6.17603,40.3263,34111010144,latlong de geonames
9218868437227407266,El Torno,,,,-5.66252,43.15131,34111010184,latlong de geonames
9218868437227407266,Vegaviana,,,,-6.72585,40.04666,34111010902,latlong de geonames
9218868437227407266,Alagón del Río,,,,-6.3166,39.96855,34111010903,latlong de geonames
9218868437227407266,Tiétar,,,,-5.86953,40.0179,34111010904,latlong de geonames
9218868437227407266,Pueblonuevo de Miramontes,,,,-5.37592,40.05802,34111010905,latlong de geonames
9218868437227407266,A Baña,,,,-8.75784,42.9618,34121515007,latlong de geonames
9218868437227407266,A Capela,,,,-8.0443,43.43614,34121515018,latlong de geonames
9218868437227407266,A Coruña,,,,-8.396,43.37135,34121515030,latlong de geonames
9218868437227407266,A Laracha,,,,-8.58535,43.25375,34121515041,latlong de geonames
9218868437227407266,O Pino,,,,-8.33284,42.93587,34121515066,latlong de geonames
9218868437227407266,A Pobra do Caramiñal,,,,-8.93824,42.60295,34121515067,latlong de geonames
9218868437227407266,As Pontes de García Rodríguez,,,,-7.85178,43.45266,34121515070,latlong de geonames
9218868437227407266,As Somozas,,,,-7.91086,43.53265,34121515081,latlong de geonames
9218868437227407266,Oza-Cesuras,,,,-8.18314,43.21912,34121515902,latlong de geonames
9218868437227407266,O Corgo,,,,-7.46032,42.93403,34122727014,latlong de geonames
9218868437227407266,A Fonsagrada,,,,-7.07969,43.14943,34122727018,latlong de geonames
9218868437227407266,O Incio,,,,-7.35,42.63333,34122727024,latlong de geonames
9218868437227407266,As Nogais,,,,-7.1092,42.76514,34122727037,latlong de geonames
9218868437227407266,O Páramo,,,,-7.3,42.95,34122727043,latlong de geonames
9218868437227407266,A Pastoriza,,,,-7.33442,43.29007,34122727044,latlong de geonames
9218868437227407266,A Pobra do Brollón,,,,-7.3914,42.55612,34122727047,latlong de geonames
9218868437227407266,A Pontenova,,,,-7.19458,43.34948,34122727048,latlong de geonames
9218868437227407266,O Saviñao,,,,-7.6482,42.63901,34122727058,latlong de geonames
9218868437227407266,O Valadouro,,,,-7.48776,43.53657,34122727063,latlong de geonames
9218868437227407266,O Vicedo,,,,-7.65436,43.71328,34122727064,latlong de geonames
9218868437227407266,A Arnoia,,,,-8.13113,42.25057,34123232003,latlong de geonames
9218868437227407266,O Barco de Valdeorras,,,,-6.99005,42.41642,34123232009,latlong de geonames
9218868437227407266,Os Blancos,,,,-7.76621,41.9809,34123232012,latlong de geonames
9218868437227407266,A Bola,,,,-7.9146,42.1523,34123232014,latlong de geonames
9218868437227407266,O Bolo,,,,-7.09897,42.30702,34123232015,latlong de geonames
9218868437227407266,O Carballiño,,,,-8.07899,42.43163,34123232019,latlong de geonames
9218868437227407266,A Gudiña,,,,-7.13875,42.06103,34123232034,latlong de geonames
9218868437227407266,O Irixo,,,,-8.167,42.51318,34123232035,latlong de geonames
9218868437227407266,A Merca,,,,-7.90492,42.22261,34123232047,latlong de geonames
9218868437227407266,A Mezquita,,,,-7.05048,42.01419,34123232048,latlong de geonames
9218868437227407266,O Pereiro de Aguiar,,,,-7.78019,42.3576,34123232058,latlong de geonames
9218868437227407266,A Peroxa,,,,-7.79454,42.44132,34123232059,latlong de geonames
9218868437227407266,A Pobra de Trives,,,,-7.27027,42.32211,34123232063,latlong de geonames
9218868437227407266,A Rúa,,,,-7.10268,42.40048,34123232072,latlong de geonames
9218868437227407266,A Teixeira,,,,-7.47345,42.39098,34123232080,latlong de geonames
9218868437227407266,A Veiga,,,,-7.0539,43.46834,34123232083,latlong de geonames
9218868437227407266,A Cañiza,,,,-8.26667,42.21667,34123636009,latlong de geonames
9218868437227407266,A Estrada,,,,-8.48842,42.68911,34123636017,latlong de geonames
9218868437227407266,O Grove,,,,-8.86502,42.49444,34123636022,latlong de geonames
9218868437227407266,A Guarda,,,,-8.87225,41.90403,34123636023,latlong de geonames
9218868437227407266,A Lama,,,,-8.41513,42.41328,34123636025,latlong de geonames
9218868437227407266,As Neves,,,,-8.40428,42.12425,34123636034,latlong de geonames
9218868437227407266,O Porriño,,,,-8.6198,42.16156,34123636039,latlong de geonames
9218868437227407266,O Rosal,,,,-8.83677,41.93536,34123636048,latlong de geonames
9218868437227407266,A Illa de Arousa,,,,-8.86725,42.54962,34123636901,latlong de geonames
9218868437227407266,La Acebeda,,,,-3.62454,41.08711,34132828001,latlong de geonames
9218868437227407266,El Álamo,,,,-3.99447,40.23066,34132828004,latlong de geonames
9218868437227407266,El Atazar,,,,-3.46849,40.93237,34132828016,latlong de geonames
9218868437227407266,El Berrueco,,,,-3.55803,40.88569,34132828021,latlong de geonames
9218868437227407266,El Boalo,,,,-3.9146,40.70105,34132828023,latlong de geonames
9218868437227407266,La Cabrera,,,,-3.61265,40.86386,34132828030,latlong de geonames
9218868437227407266,El Escorial,,,,-4.14738,40.59144,34132828054,latlong de geonames
9218868437227407266,La Hiruela,,,,-3.4549,41.07787,34132828069,latlong de geonames
9218868437227407266,Horcajo de la Sierra-Aoslos,,,,-3.58945,41.07983,34132828070,latlong de geonames
9218868437227407266,Madrid,,,,-3.70256,40.4165,34132828079,latlong de geonames
9218868437227407266,El Molar,,,,-3.57969,40.73215,34132828086,latlong de geonames
9218868437227407266,Los Molinos,,,,-4.07402,40.71578,34132828087,latlong de geonames
9218868437227407266,Las Rozas de Madrid,,,,-3.87371,40.49292,34132828127,latlong de geonames
9218868437227407266,Los Santos de la Humosa,,,,-3.25332,40.49968,34132828137,latlong de geonames
9218868437227407266,La Serna del Monte,,,,-3.62502,41.03108,34132828138,latlong de geonames
9218868437227407266,El Vellón,,,,-3.57969,40.76495,34132828168,latlong de geonames
9218868437227407266,Los Baldios,,,,-16.32765,28.46686,34132853057,latlong de geonames
9218868437227407266,El Redegüelo,,,,0,0,34132853058,latlong de geonames
9218868437227407266,Alhama de Murcia,,,,-1.42507,37.85103,34143030008,latlong de geonames
9218868437227407266,Bullas,,,,-1.67227,38.04667,34143030012,latlong de geonames
9218868437227407266,Cartagena,,,,-0.98623,37.60512,34143030016,latlong de geonames
9218868437227407266,Cieza,,,,-1.41987,38.23998,34143030019,latlong de geonames
9218868437227407266,Lorca,,,,-1.7017,37.67119,34143030024,latlong de geonames
9218868437227407266,Molina de Segura,,,,-1.20763,38.05456,34143030027,latlong de geonames
9218868437227407266,Murcia,,,,-1.13004,37.98704,34143030030,latlong de geonames
9218868437227407266,Las Torres de Cotillas,,,,-1.24188,38.02822,34143030038,latlong de geonames
9218868437227407266,La Unión,,,,-0.87799,37.61915,34143030041,latlong de geonames
9218868437227407266,Los Alcázares,,,,-0.85041,37.74425,34143030902,latlong de geonames
9218868437227407266,Abárzuza/Abartzuza,,,,-2.02269,42.72722,34153131002,latlong de geonames
9218868437227407266,Allín/Allin,,,,-2.07559,42.70929,34153131011,latlong de geonames
9218868437227407266,Ancín/Antzin,,,,-2.18885,42.66047,34153131014,latlong de geonames
9218868437227407266,Ansoáin/Antsoain,,,,-1.64045,42.83586,34153131016,latlong de geonames
9218868437227407266,Aranarache/Aranaratxe,,,,-2.22924,42.77979,34153131021,latlong de geonames
9218868437227407266,Los Arcos,,,,-2.19275,42.57076,34153131029,latlong de geonames
9218868437227407266,Atez/Atetz,,,,-1.70777,42.94208,34153131040,latlong de geonames
9218868437227407266,Ayegui/Aiegi,,,,-2.04403,42.64933,34153131041,latlong de geonames
9218868437227407266,El Busto,,,,-2.24085,42.54876,34153131061,latlong de geonames
9218868437227407266,Cirauqui/Zirauki,,,,-1.89811,42.66155,34153131074,latlong de geonames
9218868437227407266,Ciriza/Ziritza,,,,-1.82342,42.79155,34153131075,latlong de geonames
9218868437227407266,Etxarri Aranatz,,,,-2.06474,42.90791,34153131084,latlong de geonames
9218868437227407266,Valle de Egüés/Eguesibar,,,,-1.56673,42.81347,34153131086,latlong de geonames
9218868437227407266,Enériz/Eneritz,,,,-1.74387,42.66308,34153131089,latlong de geonames
9218868437227407266,Estella-Lizarra,,,,-2.03226,42.67182,34153131097,latlong de geonames
9218868437227407266,Gallipienzo/Galipentzu,,,,-1.41392,42.50382,34153131110,latlong de geonames
9218868437227407266,Guesálaz/Gesalatz,,,,-1.91428,42.76392,34153131120,latlong de geonames
9218868437227407266,Uharte Arakil,,,,-1.9567,42.92946,34153131123,latlong de geonames
9218868437227407266,Iza/Itza,,,,-1.7294,42.83664,34153131131,latlong de geonames
9218868437227407266,Leache/Leatxe,,,,0,0,34153131146,latlong de geonames
9218868437227407266,Leoz/Leotz,,,,-1.57566,42.58594,34153131150,latlong de geonames
9218868437227407266,Lizoáin-Arriasgoiti,,,,-1.46955,42.82966,34153131156,latlong de geonames
9218868437227407266,Monreal/Elo,,,,-1.50785,42.70421,34153131172,latlong de geonames
9218868437227407266,Navascués/Nabaskoze,,,,-1.10434,42.72659,34153131181,latlong de geonames
9218868437227407266,Oiz,,,,-2.58333,43.23333,34153131187,latlong de geonames
9218868437227407266,Olite/Erriberri,,,,-1.65196,42.47971,34153131191,latlong de geonames
9218868437227407266,Olóriz/Oloritz,,,,-1.59677,42.64182,34153131192,latlong de geonames
9218868437227407266,Orbaizeta,,,,-1.21318,42.99705,34153131195,latlong de geonames
9218868437227407266,Oroz-Betelu/Orotz-Betelu,,,,-1.3,42.9,34153131199,latlong de geonames
9218868437227407266,Pamplona/Iruña,,,,-1.64323,42.81687,34153131201,latlong de geonames
9218868437227407266,Peralta/Azkoien,,,,-1.80035,42.33834,34153131202,latlong de geonames
9218868437227407266,Salinas de Oro/Jaitz,,,,-1.87876,42.77781,34153131214,latlong de geonames
9218868437227407266,Unzué/Untzue,,,,-1.61998,42.66514,34153131238,latlong de geonames
9218868437227407266,Urroz,,,,-1.45911,42.77799,34153131244,latlong de geonames
9218868437227407266,Bera,,,,-1.68632,43.28177,34153131250,latlong de geonames
9218868437227407266,Zabalza/Zabaltza,,,,-1.79711,42.7727,34153131262,latlong de geonames
9218868437227407266,Berrioplano/Berriobeiti,,,,-1.7,42.85,34153131902,latlong de geonames
9218868437227407266,Facero de Uzamalarre,,,,0,0,34153153059,latlong de geonames
9218868437227407266,Facería de Arambelza,,,,0,0,34153153060,latlong de geonames
9218868437227407266,Mancomunidad de Beunza y Juarbe,,,,0,0,34153153061,latlong de geonames
9218868437227407266,Comunidad de Barbarín y Olejúa,,,,0,0,34153153062,latlong de geonames
9218868437227407266,Monte Comunal de las Limitaciones de las Améscoas,,,,0,0,34153153063,latlong de geonames
9218868437227407266,Facería de Ezcabarte y otros,,,,0,0,34153153064,latlong de geonames
9218868437227407266,Facería de Aldape,,,,0,0,34153153065,latlong de geonames
9218868437227407266,Facería de Montejurra,,,,0,0,34153153066,latlong de geonames
9218868437227407266,Comunidad del Valle de Salazar,,,,0,0,34153153067,latlong de geonames
9218868437227407266,Facero de Aristregui,,,,0,0,34153153068,latlong de geonames
9218868437227407266,Facero de Ujué y Lerga,,,,0,0,34153153069,latlong de geonames
9218868437227407266,Facería de Ayarza,,,,0,0,34153153070,latlong de geonames
9218868437227407266,Bardenas Reales,,,,-1.47,42.19083,34153153078,latlong de geonames
9218868437227407266,Sierra de Aralar,,,,-2.05225,42.97953,34153153080,latlong de geonames
9218868437227407266,Sierra de Lokiz,,,,0,0,34153153081,latlong de geonames
9218868437227407266,"Facería de Cogullo Alto, Cogullo Bajo, Sarmindieta y Chandivar",,,,0,0,34153153083,latlong de geonames
9218868437227407266,Arratzua-Ubarrundia,,,,-2.61436,42.92427,34160101008,latlong de geonames
9218868437227407266,Moreda de Álava/Moreda Araba,,,,-2.40828,42.52571,34160101039,latlong de geonames
9218868437227407266,Legutio,,,,-2.64237,42.978,34160101058,latlong de geonames
9218868437227407266,Vitoria-Gasteiz,,,,-2.67268,42.84998,34160101059,latlong de geonames
9218868437227407266,Comunidad de la Sierra Brava de Badaya,,,,0,0,34160153001,latlong de geonames
9218868437227407266,Parzoneria de Entzia,,,,0,0,34160153002,latlong de geonames
9218868437227407266,Bidania-Goiatz,,,,-2.1681,43.13269,34162020024,latlong de geonames
9218868437227407266,Soraluze-Placencia de las Armas,,,,-2.41304,43.17287,34162020065,latlong de geonames
9218868437227407266,Donostia/San Sebastián,,,,-1.97499,43.31283,34162020069,latlong de geonames
9218868437227407266,Donostia/San Sebastián,,,,-1.97499,43.31283,34162020069,latlong de geonames
9218868437227407266,Parzonería general de Guipúzcoa y Álava,,,,0,0,34162053000,latlong de geonames
9218868437227407266,Mancomunidad de Amezketa y Ordizia,,,,0,0,34162053048,latlong de geonames
9218868437227407266,Bilbao,,,,-2.92528,43.26271,34164848020,latlong de geonames
9218868437227407266,Sopela,,,,-2.98281,43.38264,34164848085,latlong de geonames
9218868437227407266,Logroño,,,,-2.45,42.46667,34172626089,latlong de geonames
9218868437227407266,El Rasillo de Cameros,,,,-2.71358,42.19631,34172626122,latlong de geonames
9218868437227407266,El Redal,,,,-2.20204,42.33746,34172626123,latlong de geonames
9218868437227407266,El Villar de Arnedo,,,,-2.09533,42.32092,34172626170,latlong de geonames
9218868437227407266,"Mancomunidad de Nalda, Sorzano y Viguera",,,,0,0,34172653056,latlong de geonames
34172626062,Foncea,0,La Rioja,La Rioja,-3.038363,42.61551,9218868437227407266,
34094343078,Masdenverge,0,Tarragona,Catalunya,0.5311569,40.71414,9218868437227407266,
34081616071,Castillo-Albaráñez,0,Cuenca,Castilla La Mancha,-2.392459,40.2987,9218868437227407266,
34094343084,Miravet,0,Tarragona,Catalunya,0.5978457,41.04,9218868437227407266,
34094343089,Montferri,0,Tarragona,Catalunya,1.366763,41.26528,9218868437227407266,
34104646227,Senyera,0,Valencia/València,Valencia,-0.5105379,39.06372,9218868437227407266,
34104646252,Vallanca,0,Valencia/València,Valencia,-1.338187,40.06289,9218868437227407266,
34172626034,Briones,0,La Rioja,La Rioja,-2.785056,42.54424,9218868437227407266,
34040707031,Llucmajor,0,Illes Balears,Islas Baleares,2.89485,39.48591,9218868437227407266,
34040707033,Manacor,0,Illes Balears,Islas Baleares,3.20142,39.57434,9218868437227407266,
34172626096,Medrano,0,La Rioja,La Rioja,-2.55403,42.38266,9218868437227407266,
34094343093,Móra d'Ebre,0,Tarragona,Catalunya,0.6391603,41.08859,9218868437227407266,
34094343091,Mont-ral,0,Tarragona,Catalunya,1.09714,41.28686,9218868437227407266,
34094343098,Nulles,0,Tarragona,Catalunya,1.295914,41.25058,9218868437227407266,
34121515013,Brión,0,A Coruña,Galicia,-8.678,42.867,9218868437227407266,
34121515014,Cabana de Bergantiños,0,A Coruña,Galicia,-8.98,43.21917,9218868437227407266,
34121515015,Cabanas,0,A Coruña,Galicia,-8.16521,43.41724,9218868437227407266,
34101212088,Pavías,0,Castellón/Castelló,Valencia,-0.4824016,39.97375,9218868437227407266,
34104646110,Xirivella,0,Valencia/València,Valencia,-0.4277937,39.46669,9218868437227407266,
34094343101,Passanant i Belltall,0,Tarragona,Catalunya,1.19708,41.53164,9218868437227407266,
34162020023,Berrobi,0,Guipúzcoa,País Vasco,-2.026374,43.14548,9218868437227407266,
34121515022,Cedeira,0,A Coruña,Galicia,-8.05547,43.66142,9218868437227407266,
34081616061,Casas de Fernando Alonso,0,Cuenca,Castilla La Mancha,-2.329337,39.35053,9218868437227407266,
34121515023,Cee,0,A Coruña,Galicia,-9.18975,42.95541,9218868437227407266,
34121515091,Vilarmaior,0,A Coruña,Galicia,-8.15395,43.34461,9218868437227407266,
34121515092,Vimianzo,0,A Coruña,Galicia,-9.033895,43.1103,9218868437227407266,
34104646028,Algar de Palancia,0,Valencia/València,Valencia,-0.3680117,39.78162,9218868437227407266,
34164848905,Zamudio,0,Vizcaya,País Vasco,-2.866667,43.28333,9218868437227407266,
34091717184,Santa Pau,0,Girona,Catalunya,2.569324,42.14638,9218868437227407266,
34091717200,Tortellà,0,Girona,Catalunya,2.630278,42.2337,9218868437227407266,
34094343102,Paüls,0,Tarragona,Catalunya,0.4018317,40.92212,9218868437227407266,
34094343103,Perafort,0,Tarragona,Catalunya,1.256016,41.19201,9218868437227407266,
34022222012,Albero Bajo,0,Huesca,Aragón,-0.3813607,42.0252,9218868437227407266,
34091717202,Tossa de Mar,0,Girona,Catalunya,2.932097,41.72018,9218868437227407266,
34092525120,Lleida,0,Lleida,Catalunya,0.6257825,41.61415,9218868437227407266,
34092525151,Olius,0,Lleida,Catalunya,1.565473,42.00957,9218868437227407266,
34121515002,Ames,0,A Coruña,Galicia,-8.633333,42.9,9218868437227407266,
34121515003,Aranga,0,A Coruña,Galicia,-8.016667,43.23333,9218868437227407266,
34053535019,San Bartolomé de Tirajana,0,Las Palmas,Canarias,-15.573,27.92461,9218868437227407266,
34010404002,Abrucena,0,Almería,Andalucía,-2.797098,37.13305,9218868437227407266,
34010404070,Oria,0,Almería,Andalucía,-2.295018,37.48503,9218868437227407266,
34011111030,Rota,0,Cádiz,Andalucía,-6.358202,36.61699,9218868437227407266,
34094343137,Sant Jaume dels Domenys,0,Tarragona,Catalunya,1.559053,41.29934,9218868437227407266,
34164848076,Sukarrieta,0,Vizcaya,País Vasco,-2.696367,43.39534,9218868437227407266,
34094343169,Vilaplana,0,Tarragona,Catalunya,1.032873,41.22898,9218868437227407266,
34074949197,Santa Clara de Avedillo,0,Zamora,Castilla León,-5.676514,41.33964,9218868437227407266,
34121515079,Santiso,0,A Coruña,Galicia,-8.05,42.85,9218868437227407266,
34121515080,Sobrado,0,León,Castilla León,-6.853734,42.51915,9218868437227407266,
34121515080,Sobrado,0,A Coruña,Galicia,-8.027381,43.042,9218868437227407266,
34121515082,Teo,0,A Coruña,Galicia,-8.586169,42.80227,9218868437227407266,
34094343107,Pira,0,Tarragona,Catalunya,1.202158,41.42395,9218868437227407266,
34074747083,Matilla de los Caños,0,Valladolid,Castilla León,-4.969812,41.54636,9218868437227407266,
34123636052,Silleda,0,Pontevedra,Galicia,-8.248382,42.69791,9218868437227407266,
34132828015,Arroyomolinos,0,Cáceres,Extremadura,-6.161489,39.18561,9218868437227407266,
34132828015,Arroyomolinos,0,Madrid,Madrid,-3.920291,40.26884,9218868437227407266,
34132828017,Batres,0,Madrid,Madrid,-3.922307,40.21029,9218868437227407266,
34011818147,Órgiva,0,Granada,Andalucía,-3.42399,36.90224,9218868437227407266,
34011414016,Cardeña,0,Córdoba,Andalucía,-4.32373,38.27047,9218868437227407266,
34011414035,Hinojosa del Duque,0,Córdoba,Andalucía,-5.148333,38.50099,9218868437227407266,
34011414036,Hornachuelos,0,Córdoba,Andalucía,-5.242984,37.83084,9218868437227407266,
34012323059,Marmolejo,0,Jaén,Andalucía,-4.170608,38.04433,9218868437227407266,
34121515047,Mesía,0,A Coruña,Galicia,-8.244491,43.11592,9218868437227407266,
34123636051,Sanxenxo,0,Pontevedra,Galicia,-8.806928,42.39948,9218868437227407266,
34172626035,Cabezón de Cameros,0,La Rioja,La Rioja,-2.51906,42.19762,9218868437227407266,
34172626049,Cihuri,0,La Rioja,La Rioja,-2.9222,42.56455,9218868437227407266,
34074040118,Marazuela,0,Segovia,Castilla León,-4.365848,40.97814,9218868437227407266,
34074747199,Villacid de Campos,0,Valladolid,Castilla León,-5.124511,42.08236,9218868437227407266,
34070505226,Santa María de los Caballeros,0,Ávila,Castilla León,-5.451696,40.38877,9218868437227407266,
34070909482,Zarzosa de Río Pisuerga,0,Burgos,Castilla León,-4.268831,42.53617,9218868437227407266,
34074242037,Bliecos,0,Soria,Castilla León,-2.271571,41.52827,9218868437227407266,
34100303055,Catral,0,Alicante/Alacant,Valencia,-0.8014995,38.16095,9218868437227407266,
34132828058,Fuenlabrada,0,Madrid,Madrid,-3.800329,40.28387,9218868437227407266,
34132828034,Canencia,0,Madrid,Madrid,-3.737718,40.90981,9218868437227407266,
34074040119,Martín Miguel,0,Segovia,Castilla León,-4.273617,40.95168,9218868437227407266,
34022222193,Pueyo de Santa Cruz,0,Huesca,Aragón,0.1572041,41.85814,9218868437227407266,
34074747208,Villagómez la Nueva,0,Valladolid,Castilla León,-5.142063,42.15588,9218868437227407266,
34074949010,Arcenillas,0,Zamora,Castilla León,-5.685144,41.45603,9218868437227407266,
34074242010,Aldealices,0,Soria,Castilla León,-2.309518,41.90195,9218868437227407266,
34080202002,Alatoz,0,Albacete,Castilla La Mancha,-1.361155,39.09464,9218868437227407266,
34074949168,Quintanilla del Monte,0,Zamora,Castilla León,-5.350849,41.86658,9218868437227407266,
34025050260,Torrelapaja,0,Zaragoza,Aragón,-1.951242,41.58165,9218868437227407266,
34172626167,Villalobar de Rioja,0,La Rioja,La Rioja,-2.961956,42.49213,9218868437227407266,
34073737018,Aldeanueva de la Sierra,0,Salamanca,Castilla León,-6.098923,40.6158,9218868437227407266,
34132828140,Serranillos del Valle,0,Madrid,Madrid,-3.885819,40.20465,9218868437227407266,
34132828095,Navalagamella,0,Madrid,Madrid,-4.12338,40.46916,9218868437227407266,
34153131144,Larraun,0,Navarra,Navarra,-1.939244,42.9934,9218868437227407266,
34153131260,Valle de Yerri/Deierri,0,Navarra,Navarra,-2,42.71667,9218868437227407266,
34153131908,Lekunberri,0,Navarra,Navarra,-1.891916,43.0013,9218868437227407266,
34160101053,San Millán/Donemiliaga,0,Álava,País Vasco,-2.376111,42.87472,9218868437227407266,
34164848001,Abadiño,0,Vizcaya,País Vasco,-2.610278,43.15,9218868437227407266,
34162020029,Deba,0,Guipúzcoa,País Vasco,-2.353894,43.29556,9218868437227407266,
34074949185,San Agustín del Pozo,0,Zamora,Castilla León,-5.594348,41.88549,9218868437227407266,
34074949188,San Esteban del Molar,0,Zamora,Castilla León,-5.55192,41.93728,9218868437227407266,
34074949105,Maire de Castroponce,0,Zamora,Castilla León,-5.784377,42.1115,9218868437227407266,
34172626045,Cellorigo,0,La Rioja,La Rioja,-2.99873,42.62777,9218868437227407266,
34162020036,Hondarribia,0,Guipúzcoa,País Vasco,-1.791498,43.36253,9218868437227407266,
34162020056,Mutriku,0,Guipúzcoa,País Vasco,-2.385083,43.30707,9218868437227407266,
34162020067,Errenteria,0,Guipúzcoa,País Vasco,-1.899633,43.31275,9218868437227407266,
34162020079,Zarautz,0,Guipúzcoa,País Vasco,-2.171588,43.28036,9218868437227407266,
34160101060,Yécora/Iekora,0,Álava,País Vasco,-2.470064,42.5693,9218868437227407266,
34162020012,Arama,0,Guipúzcoa,País Vasco,-2.165558,43.06364,9218868437227407266,
34162020081,Zumaia,0,Guipúzcoa,País Vasco,-2.256849,43.29726,9218868437227407266,
34164848003,Amorebieta-Etxano,0,Vizcaya,País Vasco,-2.733236,43.2205,9218868437227407266,
34164848017,Bermeo,0,Vizcaya,País Vasco,-2.722158,43.42042,9218868437227407266,
34164848018,Berriatua,0,Vizcaya,País Vasco,-2.466667,43.31667,9218868437227407266,
34022222218,Senés de Alcubierre,0,Huesca,Aragón,-0.4904756,41.90733,9218868437227407266,
34070909123,Espinosa del Camino,0,Burgos,Castilla León,-3.281149,42.40644,9218868437227407266,
34070909257,Pedrosa del Páramo,0,Burgos,Castilla León,-3.972769,42.44224,9218868437227407266,
34090808228,Sant Martí Sesgueioles,0,Barcelona,Catalunya,1.48792,41.7021,9218868437227407266,
34091717010,Argelaguer,0,Girona,Catalunya,2.641481,42.21608,9218868437227407266,
34091717021,Beuda,0,Girona,Catalunya,2.70972,42.23698,9218868437227407266,
34091717023,Blanes,0,Girona,Catalunya,2.792096,41.67427,9218868437227407266,
34070909280,Quintanabureba,0,Burgos,Castilla León,-3.366666,42.58692,9218868437227407266,
34100303119,Sant Joan d'Alacant,0,Alicante/Alacant,Valencia,-0.4345329,38.39817,9218868437227407266,
34074242030,Barca,0,Soria,Castilla León,-2.620859,41.45625,9218868437227407266,
34104646075,Bufali,0,Valencia/València,Valencia,-0.5142651,38.86781,9218868437227407266,
34081616209,Torralba,0,Cuenca,Castilla La Mancha,-2.286456,40.3023,9218868437227407266,
34072424141,San Adrián del Valle,0,León,Castilla León,-5.730267,42.13128,9218868437227407266,
34070909454,Villanueva de Teba,0,Burgos,Castilla León,-3.162595,42.64913,9218868437227407266,
34025050273,Valdehorna,0,Zaragoza,Aragón,-1.4231,41.07252,9218868437227407266,
34070505046,Canales,0,Ávila,Castilla León,-4.900349,41.00328,9218868437227407266,
34063939019,Castañeda,0,Cantabria,Cantabria,-3.95332,43.31572,9218868437227407266,
34070909236,Olmillos de Muñó,0,Burgos,Castilla León,-3.940343,42.20261,9218868437227407266,
34172626172,Villarejo,0,La Rioja,La Rioja,-2.887695,42.37299,9218868437227407266,
34164848910,Iurreta,0,Vizcaya,País Vasco,-2.633777,43.1767,9218868437227407266,
34074242201,Velilla de la Sierra,0,Soria,Castilla León,-2.401653,41.80911,9218868437227407266,
34164848019,Berriz,0,Vizcaya,País Vasco,-2.593,43.18817,9218868437227407266,
34164848024,Zeanuri,0,Vizcaya,País Vasco,-2.749615,43.09966,9218868437227407266,
34010404064,Mojácar,0,Almería,Andalucía,-1.851328,37.13995,9218868437227407266,
34010404086,Sorbas,0,Almería,Andalucía,-2.126351,37.09841,9218868437227407266,
34010404079,Roquetas de Mar,0,Almería,Andalucía,-2.614935,36.76427,9218868437227407266,
34011414001,Adamuz,0,Córdoba,Andalucía,-4.524873,38.02736,9218868437227407266,
34040707023,Ferreries,0,Illes Balears,Islas Baleares,4.010968,39.98328,9218868437227407266,
34072424211,Villamandos,0,León,Castilla León,-5.590787,42.17973,9218868437227407266,
34073434038,Bustillo de la Vega,0,Palencia,Castilla León,-4.740725,42.45601,9218868437227407266,
34081616030,Bascuñana de San Pedro,0,Cuenca,Castilla La Mancha,-2.228446,40.2121,9218868437227407266,
34172626039,Canillas de Río Tuerto,0,La Rioja,La Rioja,-2.841517,42.39923,9218868437227407266,
34022222220,Sesa,0,Huesca,Aragón,-0.2454906,41.99627,9218868437227407266,
34070909130,Fresneña,0,Burgos,Castilla León,-3.134803,42.41425,9218868437227407266,
34104646091,Castellonet de la Conquesta,0,Valencia/València,Valencia,-0.2634233,38.91521,9218868437227407266,
34073434215,Villalcázar de Sirga,0,Palencia,Castilla León,-4.543277,42.31688,9218868437227407266,
34090808901,Rupit i Pruit,0,Barcelona,Catalunya,2.465066,42.02406,9218868437227407266,
34074040228,Villaverde de Íscar,0,Segovia,Castilla León,-4.529464,41.30714,9218868437227407266,
34022222199,Sabiñánigo,0,Huesca,Aragón,-0.3650786,42.5197,9218868437227407266,
34022222251,Villanueva de Sigena,0,Huesca,Aragón,-0.0088677,41.71533,9218868437227407266,
34022222907,Aínsa-Sobrarbe,0,Huesca,Aragón,0.1469093,42.41556,9218868437227407266,
34063939001,Alfoz de Lloredo,0,Cantabria,Cantabria,-4.166667,43.36666,9218868437227407266,
34100303091,Murla,0,Alicante/Alacant,Valencia,-0.0829431,38.76031,9218868437227407266,
34132828135,Santa María de la Alameda,0,Madrid,Madrid,-4.257937,40.5957,9218868437227407266,
34081616066,Casasimarro,0,Cuenca,Castilla La Mancha,-2.036607,39.39071,9218868437227407266,
34081616068,Castillejo de Iniesta,0,Cuenca,Castilla La Mancha,-1.761311,39.52582,9218868437227407266,
34091717036,Campdevànol,0,Girona,Catalunya,2.167294,42.22223,9218868437227407266,
34091717037,Campelles,0,Girona,Catalunya,2.140032,42.29569,9218868437227407266,
34091717038,Campllong,0,Girona,Catalunya,2.83227,41.89647,9218868437227407266,
34104646004,Agullent,0,Valencia/València,Valencia,-0.5489346,38.82132,9218868437227407266,
34081919231,Rebollosa de Jadraque,0,Guadalajara,Castilla La Mancha,-2.841893,41.08976,9218868437227407266,
34104646175,Montitxelvo/Montichelvo,0,Valencia/València,Valencia,-0.3389177,38.89122,9218868437227407266,
34110606062,Helechosa de los Montes,0,Badajoz,Extremadura,-4.909214,39.31137,9218868437227407266,
34110606069,Hornachos,0,Badajoz,Extremadura,-6.069669,38.55511,9218868437227407266,
34110606070,Jerez de los Caballeros,0,Badajoz,Extremadura,-6.771007,38.31935,9218868437227407266,
34110606085,Monesterio,0,Badajoz,Extremadura,-6.274293,38.08678,9218868437227407266,
34110606086,Montemolín,0,Badajoz,Extremadura,-6.214543,38.15512,9218868437227407266,
34110606087,Monterrubio de la Serena,0,Badajoz,Extremadura,-5.443485,38.5892,9218868437227407266,
34110606088,Montijo,0,Badajoz,Extremadura,-6.617333,38.90995,9218868437227407266,
34110606902,Pueblonuevo del Guadiana,0,Badajoz,Extremadura,-6.755604,38.92309,9218868437227407266,
34111010004,Acehúche,0,Cáceres,Extremadura,-6.633866,39.80257,9218868437227407266,
34111010008,Alcántara,0,Cáceres,Extremadura,-6.886507,39.71918,9218868437227407266,
34153131190,Olejua,0,Navarra,Navarra,-2.141197,42.62326,9218868437227407266,
34172626019,Arrúbal,0,La Rioja,La Rioja,-2.25173,42.43536,9218868437227407266,
34063939084,Solórzano,0,Cantabria,Cantabria,-3.586886,43.37978,9218868437227407266,
34033333070,Tapia de Casariego,0,Asturias,Asturias,-6.943604,43.56975,9218868437227407266,
34040707019,Escorca,0,Illes Balears,Islas Baleares,2.869478,39.8211,9218868437227407266,
34024444164,Nogueras,0,Teruel,Aragón,-1.066893,41.13451,9218868437227407266,
34025050148,Luesia,0,Zaragoza,Aragón,-1.021661,42.36987,9218868437227407266,
34074949011,Arcos de la Polvorosa,0,Zamora,Castilla León,-5.697485,41.94452,9218868437227407266,
34074949012,Argañín,0,Zamora,Castilla León,-6.210151,41.43971,9218868437227407266,
34073434033,Boada de Campos,0,Palencia,Castilla León,-4.877423,41.98954,9218868437227407266,
34091717181,Santa Cristina d'Aro,0,Girona,Catalunya,3.002927,41.81566,9218868437227407266,
34091717039,Camprodon,0,Girona,Catalunya,2.364999,42.31283,9218868437227407266,
34091717040,Canet d'Adri,0,Girona,Catalunya,2.737174,42.03352,9218868437227407266,
34091717071,Fontcoberta,0,Girona,Catalunya,2.785791,42.14968,9218868437227407266,
34091717058,Crespià,0,Girona,Catalunya,2.799921,42.18707,9218868437227407266,
34091717092,Llançà,0,Girona,Catalunya,3.161217,42.36518,9218868437227407266,
34091717080,Gombrèn,0,Girona,Catalunya,2.091462,42.24837,9218868437227407266,
34153131055,Betelu,0,Navarra,Navarra,-1.980945,43.02534,9218868437227407266,
34025050185,Murillo de Gállego,0,Zaragoza,Aragón,-0.7540914,42.33651,9218868437227407266,
34022222013,Alberuela de Tubo,0,Huesca,Aragón,-0.2136612,41.9088,9218868437227407266,
34012323050,Jaén,0,Jaén,Andalucía,-3.789518,37.76574,9218868437227407266,
34091717154,Sales de Llierca,0,Girona,Catalunya,2.657499,42.2373,9218868437227407266,
34091717147,Ripoll,0,Girona,Catalunya,2.190623,42.20079,9218868437227407266,
34091717174,Sant Miquel de Campmajor,0,Girona,Catalunya,2.678047,42.13596,9218868437227407266,
34091717177,Sant Pau de Segúries,0,Girona,Catalunya,2.365932,42.26163,9218868437227407266,
34070909440,Villalbilla de Gumiel,0,Burgos,Castilla León,-3.626274,41.80642,9218868437227407266,
34024444216,Teruel,0,Teruel,Aragón,-1.10691,40.34411,9218868437227407266,
34070909090,Castrillo Matajudíos,0,Burgos,Castilla León,-4.173882,42.31054,9218868437227407266,
34070909209,Medina de Pomar,0,Burgos,Castilla León,-3.487223,42.92837,9218868437227407266,
34070909213,Merindad de Cuesta-Urria,0,Burgos,Castilla León,-3.391667,42.9,9218868437227407266,
34070909225,Moncalvillo,0,Burgos,Castilla León,-3.199341,41.9552,9218868437227407266,
34074949152,Pereruela,0,Zamora,Castilla León,-5.878694,41.41685,9218868437227407266,
34080202008,Alcaraz,0,Albacete,Castilla La Mancha,-2.492647,38.66966,9218868437227407266,
34091717212,Vidrà,0,Girona,Catalunya,2.309278,42.12211,9218868437227407266,
34025050227,Romanos,0,Zaragoza,Aragón,-1.275405,41.12636,9218868437227407266,
34111010047,Carcaboso,0,Cáceres,Extremadura,-6.213867,40.04923,9218868437227407266,
34162020063,Oiartzun,0,Guipúzcoa,País Vasco,-1.857874,43.29928,9218868437227407266,
34162020064,Pasaia,0,Guipúzcoa,País Vasco,-1.921111,43.32528,9218868437227407266,
34022222204,Sallent de Gállego,0,Huesca,Aragón,-0.3347842,42.77204,9218868437227407266,
34092525177,Preixens,0,Lleida,Catalunya,1.048713,41.79344,9218868437227407266,
34132828114,Piñuécar-Gandullas,0,Madrid,Madrid,-3.599468,41.03265,9218868437227407266,
34072424124,Quintana del Marco,0,León,Castilla León,-5.851365,42.20629,9218868437227407266,
34063939005,Argoños,0,Cantabria,Cantabria,-3.485922,43.45803,9218868437227407266,
34073737149,Garcirrey,0,Salamanca,Castilla León,-6.130104,40.90087,9218868437227407266,
34074747147,San Pablo de la Moraleja,0,Valladolid,Castilla León,-4.777665,41.1605,9218868437227407266,
34070909258,Pedrosa del Príncipe,0,Burgos,Castilla León,-4.198915,42.24924,9218868437227407266,
34074242140,Portillo de Soria,0,Soria,Castilla León,-2.121212,41.63532,9218868437227407266,
34074747125,Pozuelo de la Orden,0,Valladolid,Castilla León,-5.25949,41.82155,9218868437227407266,
34081616082,Enguídanos,0,Cuenca,Castilla La Mancha,-1.608388,39.67319,9218868437227407266,
34132828071,Horcajuelo de la Sierra,0,Madrid,Madrid,-3.54552,41.06009,9218868437227407266,
34092525071,Cava,0,Lleida,Catalunya,1.605365,42.32498,9218868437227407266,
34070909119,Cuevas de San Clemente,0,Burgos,Castilla León,-3.568581,42.12992,9218868437227407266,
34070909301,Quintanilla Vivar,0,Burgos,Castilla León,-3.690509,42.41479,9218868437227407266,
34073737259,Puebla de San Medel,0,Salamanca,Castilla León,-5.736328,40.51145,9218868437227407266,
34132828179,Villar del Olmo,0,Madrid,Madrid,-3.235551,40.33669,9218868437227407266,
34153131232,Tudela,0,Navarra,Navarra,-1.605718,42.06388,9218868437227407266,
34164848067,Muxika,0,Vizcaya,País Vasco,-2.692941,43.28967,9218868437227407266,
34164848079,Errigoiti,0,Vizcaya,País Vasco,-2.725344,43.31871,9218868437227407266,
34074949029,Burganes de Valverde,0,Zamora,Castilla León,-5.781086,41.92078,9218868437227407266,
34025050019,Alforque,0,Zaragoza,Aragón,-0.3856694,41.33142,9218868437227407266,
34011818053,Cortes de Baza,0,Granada,Andalucía,-2.769917,37.65493,9218868437227407266,
34011818071,Dúrcal,0,Granada,Andalucía,-3.56616,36.98793,9218868437227407266,
34011818056,Cúllar,0,Granada,Andalucía,-2.576282,37.58368,9218868437227407266,
34011818068,Dílar,0,Granada,Andalucía,-3.601624,37.07499,9218868437227407266,
34011818069,Dólar,0,Granada,Andalucía,-2.989589,37.18004,9218868437227407266,
34104646237,Tavernes Blanques,0,Valencia/València,Valencia,-0.3655908,39.50699,9218868437227407266,
34081616005,Albalate de las Nogueras,0,Cuenca,Castilla La Mancha,-2.278006,40.36728,9218868437227407266,
34081919192,Mondéjar,0,Guadalajara,Castilla La Mancha,-3.115048,40.32302,9218868437227407266,
34070909485,Zuñeda,0,Burgos,Castilla León,-3.226378,42.60449,9218868437227407266,
34070909423,Vileña,0,Burgos,Castilla León,-3.323521,42.62206,9218868437227407266,
34074949228,Valdefinjas,0,Zamora,Castilla León,-5.452972,41.45128,9218868437227407266,
34074040154,Pajarejos,0,Segovia,Castilla León,-3.590637,41.39035,9218868437227407266,
34073434110,Mudá,0,Palencia,Castilla León,-4.393997,42.87574,9218868437227407266,
34025050021,Almochuel,0,Zaragoza,Aragón,-0.5502118,41.28008,9218868437227407266,
34025050048,Berrueco,0,Zaragoza,Aragón,-1.466913,40.99079,9218868437227407266,
34025050057,Brea de Aragón,0,Zaragoza,Aragón,-1.598545,41.52528,9218868437227407266,
34010404052,Huércal de Almería,0,Almería,Andalucía,-2.435978,36.88415,9218868437227407266,
34012929051,Estepona,0,Málaga,Andalucía,-5.144903,36.42477,9218868437227407266,
34012929054,Fuengirola,0,Málaga,Andalucía,-4.624353,36.53901,9218868437227407266,
34033333073,Tineo,0,Asturias,Asturias,-6.414816,43.33509,9218868437227407266,
34033333076,Villaviciosa,0,Asturias,Asturias,-5.435346,43.48137,9218868437227407266,
34033333077,Villayón,0,Asturias,Asturias,-6.705317,43.44804,9218868437227407266,
34040707002,Alaior,0,Illes Balears,Islas Baleares,4.139987,39.93064,9218868437227407266,
34040707003,Alcúdia,0,Illes Balears,Islas Baleares,3.122027,39.85231,9218868437227407266,
34040707026,Eivissa,0,Illes Balears,Islas Baleares,1.432378,38.90886,9218868437227407266,
34025050149,Luesma,0,Zaragoza,Aragón,-1.146436,41.16655,9218868437227407266,
34074747078,Lomoviejo,0,Valladolid,Castilla León,-4.917227,41.1489,9218868437227407266,
34012929062,Iznate,0,Málaga,Andalucía,-4.18356,36.77612,9218868437227407266,
34012929069,Marbella,0,Málaga,Andalucía,-4.886352,36.50994,9218868437227407266,
34012929070,Mijas,0,Málaga,Andalucía,-4.637619,36.5957,9218868437227407266,
34012929094,Vélez-Málaga,0,Málaga,Andalucía,-4.100675,36.77864,9218868437227407266,
34025050067,Calatayud,0,Zaragoza,Aragón,-1.647009,41.35432,9218868437227407266,
34025050074,Caspe,0,Zaragoza,Aragón,-0.0440777,41.234,9218868437227407266,
34025050095,Ejea de los Caballeros,0,Zaragoza,Aragón,-1.137434,42.12921,9218868437227407266,
34025050099,Épila,0,Zaragoza,Aragón,-1.2846,41.60128,9218868437227407266,
34025050137,Leciñena,0,Zaragoza,Aragón,-0.6105711,41.79892,9218868437227407266,
34025050151,Luna,0,Zaragoza,Aragón,-0.9318546,42.1665,9218868437227407266,
34025050163,María de Huerva,0,Zaragoza,Aragón,-0.9935882,41.53905,9218868437227407266,
34025050165,Mequinenza,0,Zaragoza,Aragón,0.3028557,41.37765,9218868437227407266,
34025050028,Anento,0,Zaragoza,Aragón,-1.333929,41.07045,9218868437227407266,
34070909281,Quintana del Pidio,0,Burgos,Castilla León,-3.751569,41.7596,9218868437227407266,
34074242130,Nepas,0,Soria,Castilla León,-2.399912,41.52644,9218868437227407266,
34033333021,Cudillero,0,Asturias,Asturias,-6.144997,43.56096,9218868437227407266,
34033333036,Llanes,0,Asturias,Asturias,-4.750914,43.41953,9218868437227407266,
34033333041,Navia,0,Asturias,Asturias,-6.723192,43.5401,9218868437227407266,
34033333044,Oviedo,0,Asturias,Asturias,-5.844759,43.36026,9218868437227407266,
34033333045,Parres,0,Asturias,Asturias,-5.19,43.37,9218868437227407266,
34033333051,Pravia,0,Asturias,Asturias,-6.112017,43.49004,9218868437227407266,
34040707006,Artà,0,Illes Balears,Islas Baleares,3.349073,39.69215,9218868437227407266,
34040707007,Banyalbufar,0,Illes Balears,Islas Baleares,2.513457,39.68718,9218868437227407266,
34033333053,Quirós,0,Asturias,Asturias,-5.966667,43.15,9218868437227407266,
34033333059,Salas,0,Asturias,Asturias,-6.260448,43.40976,9218868437227407266,
34081919325,Viñuelas,0,Guadalajara,Castilla La Mancha,-3.34408,40.79491,9218868437227407266,
34074747189,Velascálvaro,0,Valladolid,Castilla León,-4.972027,41.23012,9218868437227407266,
34063939011,Bareyo,0,Cantabria,Cantabria,-3.596607,43.47031,9218868437227407266,
34063939020,Castro-Urdiales,0,Cantabria,Cantabria,-3.21957,43.38277,9218868437227407266,
34063939024,Comillas,0,Cantabria,Cantabria,-4.291507,43.38564,9218868437227407266,
34063939035,Laredo,0,Cantabria,Cantabria,-3.412477,43.41148,9218868437227407266,
34063939052,Piélagos,0,Cantabria,Cantabria,-3.957237,43.38657,9218868437227407266,
34070909309,Regumiel de la Sierra,0,Burgos,Castilla León,-2.987816,41.95593,9218868437227407266,
34024444018,Almohaja,0,Teruel,Aragón,-1.437312,40.60515,9218868437227407266,
34074040120,Martín Muñoz de la Dehesa,0,Segovia,Castilla León,-4.68732,41.06539,9218868437227407266,
34081313068,Puebla de Don Rodrigo,0,Ciudad Real,Castilla La Mancha,-4.620681,39.08641,9218868437227407266,
34081313098,Viso del Marqués,0,Ciudad Real,Castilla La Mancha,-3.562804,38.52327,9218868437227407266,
34012323087,Torredonjimeno,0,Jaén,Andalucía,-3.959263,37.76543,9218868437227407266,
34100303007,Alcocer de Planes,0,Alicante/Alacant,Valencia,-0.4027004,38.79493,9218868437227407266,
34162020060,Orexa,0,Guipúzcoa,País Vasco,-2.011392,43.09388,9218868437227407266,
34081919104,Chequilla,0,Guadalajara,Castilla La Mancha,-1.827446,40.60582,9218868437227407266,
34164848052,Larrabetzu,0,Vizcaya,País Vasco,-2.796175,43.26097,9218868437227407266,
34074747053,Cogeces de Íscar,0,Valladolid,Castilla León,-4.544879,41.4059,9218868437227407266,
34094343023,Bellmunt del Priorat,0,Tarragona,Catalunya,0.7666381,41.16308,9218868437227407266,
34090808002,Aguilar de Segarra,0,Barcelona,Catalunya,1.629385,41.73976,9218868437227407266,
34084545181,Velada,0,Toledo,Castilla La Mancha,-4.979115,39.98071,9218868437227407266,
34084545195,Villarrubia de Santiago,0,Toledo,Castilla La Mancha,-3.368908,39.98702,9218868437227407266,
34090808013,Avinyonet del Penedès,0,Barcelona,Catalunya,1.776485,41.3606,9218868437227407266,
34090808015,Badalona,0,Barcelona,Catalunya,2.24742,41.45014,9218868437227407266,
34091717227,Vilamaniscle,0,Girona,Catalunya,3.067037,42.37445,9218868437227407266,
34012323098,Villardompardo,0,Jaén,Andalucía,-4.001286,37.83969,9218868437227407266,
34070909021,Arauzo de Salce,0,Burgos,Castilla León,-3.412258,41.81974,9218868437227407266,
34053838046,Tegueste,0,Santa Cruz de Tenerife,Canarias,-16.33353,28.52328,9218868437227407266,
34053838047,Tijarafe,0,Santa Cruz de Tenerife,Canarias,-17.95,28.7,9218868437227407266,
34053838048,Valverde,0,Santa Cruz de Tenerife,Canarias,-17.91566,27.8089,9218868437227407266,
34053838049,Valle Gran Rey,0,Santa Cruz de Tenerife,Canarias,-17.32575,28.12357,9218868437227407266,
34053838050,Vallehermoso,0,Santa Cruz de Tenerife,Canarias,-17.26406,28.17902,9218868437227407266,
34092525068,Castellnou de Seana,0,Lleida,Catalunya,0.9675318,41.64469,9218868437227407266,
34094343092,Mont-roig del Camp,0,Tarragona,Catalunya,0.9616579,41.08556,9218868437227407266,
34094343136,Sant Carles de la Ràpita,0,Tarragona,Catalunya,0.5928925,40.6202,9218868437227407266,
34074242052,Caracena,0,Soria,Castilla León,-3.091343,41.3833,9218868437227407266,
34074747071,Geria,0,Valladolid,Castilla León,-4.87641,41.57863,9218868437227407266,
34011111004,Algeciras,0,Cádiz,Andalucía,-5.447698,36.12978,9218868437227407266,
34090808028,Cabrera d'Anoia,0,Barcelona,Catalunya,1.704722,41.47944,9218868437227407266,
34011111005,Algodonales,0,Cádiz,Andalucía,-5.405773,36.88092,9218868437227407266,
34011111006,Arcos de la Frontera,0,Cádiz,Andalucía,-5.812395,36.75078,9218868437227407266,
34011111012,Cádiz,0,Cádiz,Andalucía,-6.292657,36.52969,9218868437227407266,
34011111033,San Roque,0,Cádiz,Andalucía,-5.384572,36.20975,9218868437227407266,
34011111031,San Fernando,0,Cádiz,Andalucía,-6.196626,36.46572,9218868437227407266,
34070505015,Arevalillo,0,Ávila,Castilla León,-5.370576,40.58731,9218868437227407266,
34025050231,Salillas de Jalón,0,Zaragoza,Aragón,-1.324482,41.56659,9218868437227407266,
34110606119,San Pedro de Mérida,0,Badajoz,Extremadura,-6.186302,38.94798,9218868437227407266,
34091717182,Santa Llogaia d'Àlguema,0,Girona,Catalunya,2.951906,42.23439,9218868437227407266,
34074747102,Nueva Villa de las Torres,0,Valladolid,Castilla León,-5.055866,41.26737,9218868437227407266,
