id,name,Comarca,Abreviatura comarca,Província,Longitud,Latitud
34094343078,Masdenverge,Montsià,MON,Tarragona,0.531709388,40.71544069
34094343082,El Masroig,Priorat,PRI,Tarragona,0.731302487,41.12666805
34094343083,El Milà,Alt Camp,ACA,Tarragona,1.206824514,41.248227432
34094343084,Miravet,Ribera d'Ebre,REB,Tarragona,0.597512982,41.038139374
34094343085,El Molar,Priorat,PRI,Tarragona,0.706156478,41.163750749
34094343089,Montferri,Alt Camp,ACA,Tarragona,1.365731905,41.26529763
34094343090,El Montmell,Baix Penedès,BPE,Tarragona,1.453796685,41.315563928
34094343095,El Morell,Tarragonès,TAR,Tarragona,1.208726943,41.192108029
34094343093,Móra d'Ebre,Ribera d'Ebre,REB,Tarragona,0.641767088,41.093142922
34094343091,Mont-ral,Alt Camp,ACA,Tarragona,1.096974798,41.286909924
34094343098,Nulles,Alt Camp,ACA,Tarragona,1.295178559,41.249492293
34094343101,Passanant i Belltall,Conca de Barberà,CBA,Tarragona,1.196922058,41.531863844
34094343096,La Morera de Montsant,Priorat,PRI,Tarragona,0.841974773,41.265228422
34094343099,La Palma d'Ebre,Ribera d'Ebre,REB,Tarragona,0.665882597,41.282508152
34094343100,Els Pallaresos,Tarragonès,TAR,Tarragona,1.271857414,41.175359814
34091717184,Santa Pau,Garrotxa,GAX,Girona,2.569688975,42.144867763
34091717200,Tortellà,Garrotxa,GAX,Girona,2.629675788,42.23281673
34094343102,Paüls,Baix Ebre,BEB,Tarragona,0.400164063,40.922379434
34094343103,Perafort,Tarragonès,TAR,Tarragona,1.255500189,41.190720894
34091717202,Tossa de Mar,Selva,SEL,Girona,2.930836887,41.717797583
34092525120,Lleida,Segrià,SGR,Lleida,0.626842574,41.614730589
34092525151,Olius,Solsonès,SOL,Lleida,1.556913968,41.977346272
34094343137,Sant Jaume dels Domenys,Baix Penedès,BPE,Tarragona,1.559265423,41.299632815
34094343169,Vilaplana,Baix Camp,BCA,Tarragona,1.03310439,41.228666117
34094343106,El Pinell de Brai,Terra Alta,TAL,Tarragona,0.51568904,41.017805032
34094343107,Pira,Conca de Barberà,CBA,Tarragona,1.202295244,41.423929996
34094343108,El Pla de Santa Maria,Alt Camp,ACA,Tarragona,1.288826246,41.365356337
34094343109,La Pobla de Mafumet,Tarragonès,TAR,Tarragona,1.209284685,41.187588664
34094343174,La Vilella Baixa,Priorat,PRI,Tarragona,0.761861618,41.22055919
34094343110,La Pobla de Massaluca,Terra Alta,TAL,Tarragona,0.353860191,41.181187304
34090808228,Sant Martí Sesgueioles,Anoia,ANO,Barcelona,1.488163253,41.702012199
34091717010,Argelaguer,Garrotxa,GAX,Girona,2.641698357,42.213401211
34091717021,Beuda,Garrotxa,GAX,Girona,2.70981115,42.237126861
34091717023,Blanes,Selva,SEL,Girona,2.791605671,41.674034609
34090808901,Rupit i Pruit,Osona,OSO,Barcelona,2.464658159,42.02330972
34091717036,Campdevànol,Ripollès,RIP,Girona,2.168005107,42.223409072
34091717037,Campelles,Ripollès,RIP,Girona,2.141072148,42.294793517
34091717038,Campllong,Gironès,GIR,Girona,2.831229783,41.892714485
34091717181,Santa Cristina d'Aro,Baix Empordà,BEM,Girona,2.99689805,41.812072519
34091717039,Camprodon,Ripollès,RIP,Girona,2.365044902,42.311525549
34091717040,Canet d'Adri,Gironès,GIR,Girona,2.737062442,42.033349233
34091717071,Fontcoberta,Pla de l'Estany,PES,Girona,2.789517726,42.142869761
34091717058,Crespià,Pla de l'Estany,PES,Girona,2.797909523,42.187780537
34091717092,Llançà,Alt Empordà,AEM,Girona,3.150763207,42.362011252
34091717080,Gombrèn,Ripollès,RIP,Girona,2.090942855,42.247855166
34091717133,Les Planes d'Hostoles,Garrotxa,GAX,Girona,2.536909351,42.055936308
34091717154,Sales de Llierca,Garrotxa,GAX,Girona,2.650126842,42.236069048
34091717147,Ripoll,Ripollès,RIP,Girona,2.19075318,42.201047605
34091717174,Sant Miquel de Campmajor,Pla de l'Estany,PES,Girona,2.684407451,42.125792537
34091717177,Sant Pau de Segúries,Ripollès,RIP,Girona,2.365664211,42.261859908
34091717208,La Vall de Bianya,Garrotxa,GAX,Girona,2.45553093,42.211066566
34091717212,Vidrà,Osona,OSO,Girona,2.309780855,42.122732223
34092525177,Preixens,Noguera,NOG,Lleida,1.050887005,41.79405026
34092525071,Cava,Alt Urgell,AUR,Lleida,1.58440322,42.325353373
34094343023,Bellmunt del Priorat,Priorat,PRI,Tarragona,0.765313302,41.163988202
34090808002,Aguilar de Segarra,Bages,BAG,Barcelona,1.630963223,41.738929127
34090808013,Avinyonet del Penedès,Alt Penedès,APE,Barcelona,1.779376543,41.360977135
34090808015,Badalona,Barcelonès,BAR,Barcelona,2.247791638,41.450026028
34091717227,Vilamaniscle,Alt Empordà,AEM,Girona,3.067798773,42.37549187
34092525068,Castellnou de Seana,Pla d'Urgell,PUR,Lleida,0.971241769,41.648220142
34094343092,Mont-roig del Camp,Baix Camp,BCA,Tarragona,0.958121082,41.087304542
34094343136,Sant Carles de la Ràpita,Montsià,MON,Tarragona,0.592536631,40.620269865
34090808028,Cabrera d'Anoia,Anoia,ANO,Barcelona,1.703544417,41.477666434
34091717182,Santa Llogaia d'Àlguema,Alt Empordà,AEM,Girona,2.953125695,42.234004988
34092525224,Els Torms,Garrigues,GAR,Lleida,0.719020561,41.394428026
34092525070,Castellserà,Urgell,URG,Lleida,0.986964286,41.74684408
34090808215,Sant Hipòlit de Voltregà,Osona,OSO,Barcelona,2.236199081,42.015546451
34090808222,Sant Llorenç d'Hortons,Alt Penedès,APE,Barcelona,1.824413228,41.467858768
34090808224,Sant Martí de Centelles,Osona,OSO,Barcelona,2.250971253,41.763890651
34090808277,Talamanca,Bages,BAG,Barcelona,1.977139773,41.738099313
34090808280,Tavertet,Osona,OSO,Barcelona,2.418462997,41.996794922
34090808130,Montclar,Berguedà,BER,Barcelona,1.765071661,42.018209187
34090808027,Les Cabanyes,Alt Penedès,APE,Barcelona,1.689614095,41.371736059
34091717012,Avinyonet de Puigventós,Alt Empordà,AEM,Girona,2.915250376,42.249367796
34091717013,Begur,Baix Empordà,BEM,Girona,3.20732264,41.954456973
34090808174,Puigdàlber,Alt Penedès,APE,Barcelona,1.701100137,41.404279647
34090808172,Premià de Mar,Maresme,MAR,Barcelona,2.35678569,41.489809495
34090808119,Masquefa,Anoia,ANO,Barcelona,1.81185265,41.50189427
34132828086,El Molar,Priorat,PRI,Tarragona,0.706156478,41.163750749
34090808132,Montmajor,Berguedà,BER,Barcelona,1.734842842,42.017415526
34092525146,Navès,Solsonès,SOL,Lleida,1.636754845,41.992269144
34091717047,Castelló d'Empúries,Alt Empordà,AEM,Girona,3.074791957,42.258576569
34091717048,Castell-Platja d'Aro,Baix Empordà,BEM,Girona,3.067081286,41.817447752
34090808190,Saldes,Berguedà,BER,Barcelona,1.736147373,42.229320229
34094343013,L'Ametlla de Mar,Baix Ebre,BEB,Tarragona,0.803501688,40.885248463
34094343014,Amposta,Montsià,MON,Tarragona,0.581007048,40.713452378
34090808166,La Pobla de Lillet,Berguedà,BER,Barcelona,1.974683055,42.243380426
34094343004,Alcanar,Montsià,MON,Tarragona,0.481966932,40.5428638
34090808184,Rubí,Vallès Occidental,VOC,Barcelona,2.031335058,41.493484672
34090808185,Rubió,Anoia,ANO,Barcelona,1.570183864,41.644644088
34091717152,Roses,Alt Empordà,AEM,Girona,3.174927346,42.263408485
34090808270,Sitges,Garraf,GAF,Barcelona,1.811838248,41.235085186
34091717054,Colera,Alt Empordà,AEM,Girona,3.150655224,42.403880308
34091717062,L'Escala,Alt Empordà,AEM,Girona,3.133767625,42.125058782
34091717065,Esponellà,Pla de l'Estany,PES,Girona,2.797006406,42.177357963
34091717137,Porqueres,Pla de l'Estany,PES,Girona,2.778059867,42.104307015
34091717123,Palol de Revardit,Pla de l'Estany,PES,Girona,2.795806377,42.06935071
34092525074,Ciutadilla,Urgell,URG,Lleida,1.138813382,41.561607011
34091717003,Albanyà,Alt Empordà,AEM,Girona,2.720108023,42.304746628
34090808052,Castellar de n'Hug,Berguedà,BER,Barcelona,2.017208352,42.282875139
34090808054,Castellbisbal,Vallès Occidental,VOC,Barcelona,1.981226635,41.474875242
34091717169,Sant Julià de Ramis,Gironès,GIR,Girona,2.839385619,42.034654264
34091717170,Vallfogona de Ripollès,Ripollès,RIP,Girona,2.304150212,42.197288935
34091717205,Ullastret,Baix Empordà,BEM,Girona,3.068398309,42.000762864
34091717125,Pardines,Ripollès,RIP,Girona,2.214123574,42.312374597
34091717056,Cornellà del Terri,Pla de l'Estany,PES,Girona,2.815658025,42.089144574
34091717085,Jafre,Baix Empordà,BEM,Girona,3.010759556,42.071965546
34094343003,L'Albiol,Baix Camp,BCA,Tarragona,1.089629618,41.252099849
34094343104,El Perelló,Baix Ebre,BEB,Tarragona,0.712002694,40.874960691
34094343115,Pradell de la Teixeta,Priorat,PRI,Tarragona,0.875646887,41.15619339
34094343146,Senan,Conca de Barberà,CBA,Tarragona,1.088271595,41.469930456
34094343148,Tarragona,Tarragonès,TAR,Tarragona,1.254358212,41.117434237
34094343150,Tivissa,Ribera d'Ebre,REB,Tarragona,0.732607845,41.042606642
34094343155,Tortosa,Baix Ebre,BEB,Tarragona,0.520955976,40.810905003
34094343081,Maspujols,Baix Camp,BCA,Tarragona,1.045839079,41.181946462
34091717006,Alp,Cerdanya,CER,Girona,1.887513138,42.373498188
34091717031,Cabanelles,Alt Empordà,AEM,Girona,2.819514826,42.230371435
34091717032,Cadaqués,Alt Empordà,AEM,Girona,3.275849152,42.288251552
34090808143,Òdena,Anoia,ANO,Barcelona,1.641588518,41.606742091
34090808161,Piera,Anoia,ANO,Barcelona,1.743364446,41.518136198
34090808162,Els Hostalets de Pierola,Anoia,ANO,Barcelona,1.770752125,41.53379831
34090808099,Guardiola de Berguedà,Berguedà,BER,Barcelona,1.878810946,42.233220705
34090808116,Les Masies de Roda,Osona,OSO,Barcelona,2.30771889,41.989567361
34090808076,Esparreguera,Baix Llobregat,BLL,Barcelona,1.870708537,41.538966192
34092525145,Nalec,Urgell,URG,Lleida,1.115201518,41.559825654
34090808229,Sant Mateu de Bages,Bages,BAG,Barcelona,1.732630684,41.796756812
34090808279,Terrassa,Vallès Occidental,VOC,Barcelona,2.010294804,41.562958779
34090808253,Santa Maria de Besora,Osona,OSO,Barcelona,2.257677408,42.12772104
34092525113,Ivars d'Urgell,Pla d'Urgell,PUR,Lleida,0.98674138,41.68195747
34092525124,Lladurs,Solsonès,SOL,Lleida,1.507628611,42.044669154
34092525127,Lles de Cerdanya,Cerdanya,CER,Lleida,1.687061793,42.390291653
34092525130,Maldà,Urgell,URG,Lleida,1.040176789,41.551101926
34092525136,La Molsosa,Solsonès,SOL,Lleida,1.541023401,41.783277943
34092525153,Els Omellons,Garrigues,GAR,Lleida,0.95990685,41.501124403
34092525166,Pinell de Solsonès,Solsonès,SOL,Lleida,1.418757039,41.950155939
34092525169,La Pobla de Cérvoles,Garrigues,GAR,Lleida,0.915289225,41.36804868
34092525180,Puiggròs,Garrigues,GAR,Lleida,0.889455565,41.551719317
34092525182,Puigverd de Lleida,Segrià,SGR,Lleida,0.733536105,41.543703841
34090808088,La Garriga,Vallès Oriental,VOR,Barcelona,2.285838545,41.685307859
34091717083,Hostalric,Selva,SEL,Girona,2.641346718,41.74580856
34090808032,Caldes d'Estrac,Maresme,MAR,Barcelona,2.527515728,41.57254213
34090808198,Sant Antoni de Vilamajor,Vallès Oriental,VOR,Barcelona,2.400660571,41.673569557
34092525175,Prats i Sansor,Cerdanya,CER,Lleida,1.836956242,42.36492897
34090808205,Sant Cugat del Vallès,Vallès Occidental,VOC,Barcelona,2.082391608,41.469853438
34090808114,Martorell,Baix Llobregat,BLL,Barcelona,1.930730461,41.474336102
34090808199,Sant Bartomeu del Grau,Osona,OSO,Barcelona,2.177151812,41.98028526
34090808154,Pacs del Penedès,Alt Penedès,APE,Barcelona,1.669009697,41.36151537
34090808092,Gironella,Berguedà,BER,Barcelona,1.882846227,42.03383842
34090808039,Campins,Vallès Oriental,VOR,Barcelona,2.463909429,41.72452859
34090808086,Les Franqueses del Vallès,Vallès Oriental,VOR,Barcelona,2.297161105,41.636306728
34094343124,La Riba,Alt Camp,ACA,Tarragona,1.177776121,41.318336933
34090808242,Marganell,Bages,BAG,Barcelona,1.793045527,41.640290978
34094343113,El Pont d'Armentera,Alt Camp,ACA,Tarragona,1.362939374,41.383748939
34094343129,Riudoms,Baix Camp,BCA,Tarragona,1.050870857,41.1376834
34094343114,Porrera,Priorat,PRI,Tarragona,0.856129608,41.188257409
34094343130,Rocafort de Queralt,Conca de Barberà,CBA,Tarragona,1.280961476,41.477539851
34090808009,Argentona,Maresme,MAR,Barcelona,2.400515899,41.555644039
34090808005,L'Ametlla del Vallès,Vallès Oriental,VOR,Barcelona,2.261520529,41.66939188
34091717199,Torroella de Montgrí,Baix Empordà,BEM,Girona,3.12637678,42.041014927
34091717207,La Vall d'en Bas,Garrotxa,GAX,Girona,2.459160667,42.117698124
34090808003,Alella,Maresme,MAR,Barcelona,2.295144857,41.493840079
34090808031,Calaf,Anoia,ANO,Barcelona,1.511278933,41.734066475
34091717035,Camós,Pla de l'Estany,PES,Girona,2.768048383,42.093822945
34091717190,Serinyà,Pla de l'Estany,PES,Girona,2.745542768,42.169656286
34091717098,Maià de Montcal,Garrotxa,GAX,Girona,2.742740958,42.22211068
34091717178,Sant Pere Pescador,Alt Empordà,AEM,Girona,3.083283056,42.188119833
34092525073,Cervià de les Garrigues,Garrigues,GAR,Lleida,0.859217612,41.424627618
34090808035,Calella,Maresme,MAR,Barcelona,2.65721784,41.613271421
34090808037,Calldetenes,Osona,OSO,Barcelona,2.284270015,41.924124237
34090808056,Castelldefels,Baix Llobregat,BLL,Barcelona,1.976232924,41.280269457
34090808073,Cornellà de Llobregat,Baix Llobregat,BLL,Barcelona,2.070159567,41.355171447
34090808083,Folgueroles,Osona,OSO,Barcelona,2.318462912,41.938626824
34090808108,Lliçà de Vall,Vallès Oriental,VOR,Barcelona,2.239084658,41.58630762
34090808112,Manlleu,Osona,OSO,Barcelona,2.283578064,41.999939102
34090808115,Martorelles,Vallès Oriental,VOR,Barcelona,2.242767079,41.525703888
34090808126,Montgat,Maresme,MAR,Barcelona,2.278681615,41.466945198
34091717086,La Jonquera,Alt Empordà,AEM,Girona,2.87315709,42.416903579
34090808128,Monistrol de Calders,Moianès,MOI,Barcelona,2.014631919,41.760322586
34090808142,La Nou de Berguedà,Berguedà,BER,Barcelona,1.885103187,42.165884405
34091717167,Sant Joan de les Abadesses,Ripollès,RIP,Girona,2.284830772,42.232808048
34092525118,Juncosa,Garrigues,GAR,Lleida,0.775456987,41.371436095
34092525119,Juneda,Garrigues,GAR,Lleida,0.825199319,41.548707644
34092525123,Lladorre,Pallars Sobirà,PSO,Lleida,1.249167838,42.621614112
34092525226,Torrebesses,Segrià,SGR,Lleida,0.594026858,41.426261072
34092525245,Vilaller,Alta Ribagorça,ARI,Lleida,0.717205843,42.476393315
34090808141,Navàs,Bages,BAG,Barcelona,1.879336762,41.899840834
34090808193,Sant Iscle de Vallalta,Maresme,MAR,Barcelona,2.569300136,41.623865928
34090808159,Parets del Vallès,Vallès Oriental,VOR,Barcelona,2.233577244,41.573165532
34094343171,Vila-seca,Tarragonès,TAR,Tarragona,1.144805793,41.110949229
34090808180,Ripollet,Vallès Occidental,VOC,Barcelona,2.15349201,41.496501631
34090808196,Sant Andreu de la Barca,Baix Llobregat,BLL,Barcelona,1.971403604,41.449999657
34090808221,Sant Just Desvern,Baix Llobregat,BLL,Barcelona,2.075560984,41.385728278
34090808225,Sant Martí d'Albars,Osona,OSO,Barcelona,2.074148562,42.027965552
34090808236,Sant Quintí de Mediona,Alt Penedès,APE,Barcelona,1.663146513,41.462349591
34090808263,Sant Vicenç dels Horts,Baix Llobregat,BLL,Barcelona,2.009712625,41.393336667
34090808274,Súria,Bages,BAG,Barcelona,1.753565253,41.831466683
34090808292,Vallbona d'Anoia,Anoia,ANO,Barcelona,1.709448701,41.519985372
34090808295,Vallirana,Baix Llobregat,BLL,Barcelona,1.931881445,41.388056111
34090808029,Cabrera de Mar,Maresme,MAR,Barcelona,2.393308926,41.526010285
34090808030,Cabrils,Maresme,MAR,Barcelona,2.367716483,41.526223857
34090808004,Alpens,Osona,OSO,Barcelona,2.101142098,42.119261415
34094343119,Puigpelat,Alt Camp,ACA,Tarragona,1.297636558,41.278722708
34090808007,Arenys de Munt,Maresme,MAR,Barcelona,2.53916522,41.610949943
34090808008,Argençola,Anoia,ANO,Barcelona,1.444155159,41.597531982
34090808042,Cànoves i Samalús,Vallès Oriental,VOR,Barcelona,2.352943715,41.693919367
34090808040,Canet de Mar,Maresme,MAR,Barcelona,2.582425003,41.588484712
34090808010,Artés,Bages,BAG,Barcelona,1.95486944,41.798136994
34090808011,Avià,Berguedà,BER,Barcelona,1.82515717,42.077285956
34090808014,Aiguafreda,Vallès Oriental,VOR,Barcelona,2.249396729,41.768885037
34090808018,Balsareny,Bages,BAG,Barcelona,1.876819518,41.86321312
34090808020,Begues,Baix Llobregat,BLL,Barcelona,1.924677961,41.330173965
34090808021,Bellprat,Anoia,ANO,Barcelona,1.434454531,41.517247322
34090808023,Bigues i Riells,Vallès Oriental,VOR,Barcelona,2.208271917,41.67932227
34090808043,Canyelles,Garraf,GAF,Barcelona,1.722358067,41.285755981
34090808044,Capellades,Anoia,ANO,Barcelona,1.685814119,41.530912121
34090808063,Castellolí,Anoia,ANO,Barcelona,1.700317601,41.598316481
34090808305,Vilafranca del Penedès,Alt Penedès,APE,Barcelona,1.697222865,41.346497608
34090808034,Calders,Moianès,MOI,Barcelona,1.991322594,41.78927569
34090808036,Calonge de Segarra,Anoia,ANO,Barcelona,1.493838563,41.74049243
34090808038,Callús,Bages,BAG,Barcelona,1.783871713,41.781240733
34090808201,Sant Boi de Lluçanès,Osona,OSO,Barcelona,2.15178496,42.058770734
34090808098,Sant Salvador de Guardiola,Bages,BAG,Barcelona,1.766295575,41.679232461
34090808045,Capolat,Berguedà,BER,Barcelona,1.753178363,42.077236538
34090808077,Esplugues de Llobregat,Baix Llobregat,BLL,Barcelona,2.087992375,41.377697766
34090808048,Carme,Anoia,ANO,Barcelona,1.62304521,41.530897864
34090808046,Cardedeu,Vallès Oriental,VOR,Barcelona,2.355346668,41.638291792
34090808097,Gualba,Vallès Oriental,VOR,Barcelona,2.501920371,41.732046397
34090808050,Castellar del Riu,Berguedà,BER,Barcelona,1.708727309,42.131049322
34090808049,Casserres,Berguedà,BER,Barcelona,1.841287149,42.014360096
34090808135,Montmeló,Vallès Oriental,VOR,Barcelona,2.247898536,41.551517208
34092525100,Gósol,Berguedà,BER,Lleida,1.660625117,42.237038372
34090808271,Sobremunt,Osona,OSO,Barcelona,2.166839648,42.036132713
34090808055,Castellcir,Moianès,MOI,Barcelona,2.148900039,41.760737454
34090808057,Castell de l'Areny,Berguedà,BER,Barcelona,1.945196781,42.173216064
34092525239,Les Valls de Valira,Alt Urgell,AUR,Lleida,1.456737734,42.379083424
34090808060,Castellfollit de Riubregós,Anoia,ANO,Barcelona,1.437574989,41.776073793
34092525218,Tarrés,Garrigues,GAR,Lleida,1.020144555,41.422900823
34092525234,Tremp,Pallars Jussà,PJU,Lleida,0.895896972,42.166918113
34092525238,Vallbona de les Monges,Urgell,URG,Lleida,1.088920757,41.525048991
34090808068,Cervelló,Baix Llobregat,BLL,Barcelona,1.958951323,41.396113524
34090808061,Castellgalí,Bages,BAG,Barcelona,1.838589454,41.675209484
34090808904,Badia del Vallès,Vallès Occidental,VOC,Barcelona,2.113905197,41.509030111
34090808152,Orpí,Anoia,ANO,Barcelona,1.60692923,41.529003828
34090808065,Castellví de la Marca,Alt Penedès,APE,Barcelona,1.61821029,41.326431737
34090808062,Castellnou de Bages,Bages,BAG,Barcelona,1.836910755,41.834129702
34090808041,Canovelles,Vallès Oriental,VOR,Barcelona,2.276970352,41.621756753
34090808153,Òrrius,Maresme,MAR,Barcelona,2.35494046,41.555084531
34090808163,Pineda de Mar,Maresme,MAR,Barcelona,2.689529503,41.627522457
34090808067,Centelles,Osona,OSO,Barcelona,2.219100119,41.797698485
34090808105,La Llagosta,Vallès Oriental,VOR,Barcelona,2.193612736,41.513120028
34090808164,El Pla del Penedès,Alt Penedès,APE,Barcelona,1.710276206,41.418366214
34090808171,Prats de Lluçanès,Osona,OSO,Barcelona,2.028590923,42.008646719
34090808070,Collsuspina,Moianès,MOI,Barcelona,2.175314238,41.825797637
34090808071,Copons,Anoia,ANO,Barcelona,1.518223006,41.63639337
34092525042,La Baronia de Rialb,Noguera,NOG,Lleida,1.19618638,41.932177024
34090808299,Vilada,Berguedà,BER,Barcelona,1.931742789,42.136867266
34090808074,Cubelles,Garraf,GAF,Barcelona,1.672526156,41.208250975
34090808079,L'Estany,Moianès,MOI,Barcelona,2.112454961,41.86860715
34090808080,Fígols,Berguedà,BER,Barcelona,1.836761574,42.181006145
34090808081,Fogars de Montclús,Vallès Oriental,VOR,Barcelona,2.443167054,41.727636577
34090808082,Fogars de la Selva,Selva,SEL,Barcelona,2.671432557,41.735098882
34090808084,Fonollosa,Bages,BAG,Barcelona,1.668695995,41.762934129
34090808085,Font-rubí,Alt Penedès,APE,Barcelona,1.651028415,41.413940013
34090808219,Vilassar de Mar,Maresme,MAR,Barcelona,2.392486809,41.502388587
34090808096,Granollers,Vallès Oriental,VOR,Barcelona,2.286822072,41.60808662
34090808087,Gallifa,Vallès Occidental,VOC,Barcelona,2.115699161,41.693114631
34090808133,Montmaneu,Anoia,ANO,Barcelona,1.414420497,41.62613551
34090808090,Gaià,Bages,BAG,Barcelona,1.925435009,41.916529234
34090808091,Gelida,Alt Penedès,APE,Barcelona,1.863167973,41.440928938
34090808094,La Granada,Alt Penedès,APE,Barcelona,1.719478586,41.376882069
34090808243,Santa Cecília de Voltregà,Osona,OSO,Barcelona,2.222301046,41.992821728
34090808120,Matadepera,Vallès Occidental,VOC,Barcelona,2.026747357,41.596641888
34090808101,L'Hospitalet de Llobregat,Barcelonès,BAR,Barcelona,2.099712098,41.359459666
34090808102,Igualada,Anoia,ANO,Barcelona,1.617581375,41.57871621
34090808103,Jorba,Anoia,ANO,Barcelona,1.548645289,41.601802496
34090808107,Lliçà d'Amunt,Vallès Oriental,VOR,Barcelona,2.239433257,41.608466785
34090808110,Malgrat de Mar,Maresme,MAR,Barcelona,2.740742879,41.645501427
34090808111,Malla,Osona,OSO,Barcelona,2.234413951,41.886588129
34090808113,Manresa,Bages,BAG,Barcelona,1.826928753,41.723055286
34090808118,El Masnou,Maresme,MAR,Barcelona,2.319018119,41.479161716
34090808121,Mataró,Maresme,MAR,Barcelona,2.444896864,41.539809903
34090808122,Mediona,Alt Penedès,APE,Barcelona,1.611341144,41.476788767
34090808123,Molins de Rei,Baix Llobregat,BLL,Barcelona,2.015962183,41.413593959
34090808167,Polinyà,Vallès Occidental,VOC,Barcelona,2.156245284,41.55760939
34090808124,Mollet del Vallès,Vallès Oriental,VOR,Barcelona,2.210310853,41.535411838
34090808127,Monistrol de Montserrat,Bages,BAG,Barcelona,1.842759667,41.609790725
34090808131,Montesquiu,Osona,OSO,Barcelona,2.209866277,42.109893569
34091717230,Vila-sacra,Alt Empordà,AEM,Girona,3.018439284,42.265455233
34090808134,Figaró-Montmany,Vallès Oriental,VOR,Barcelona,2.273365617,41.721699343
34094343116,Prades,Baix Camp,BCA,Tarragona,0.988191149,41.309794099
34090808136,Montornès del Vallès,Vallès Oriental,VOR,Barcelona,2.267313544,41.54526095
34090808272,Sora,Osona,OSO,Barcelona,2.159795294,42.110492814
34090808140,Navarcles,Bages,BAG,Barcelona,1.903759781,41.751626892
34090808144,Olvan,Berguedà,BER,Barcelona,1.906973539,42.056997671
34090808146,Olesa de Bonesvalls,Alt Penedès,APE,Barcelona,1.850758765,41.351704507
34092525043,La Vall de Boí,Alta Ribagorça,ARI,Lleida,0.800461177,42.504586732
34092525062,Camarasa,Noguera,NOG,Lleida,0.877764265,41.875255654
34090808148,Olivella,Garraf,GAF,Barcelona,1.812242091,41.310311558
34090808149,Olost,Osona,OSO,Barcelona,2.095728143,41.985806687
34090808150,Orís,Osona,OSO,Barcelona,2.239282559,42.058223954
34090808155,Palafolls,Maresme,MAR,Barcelona,2.749412882,41.667246003
34090808156,Palau-solità i Plegamans,Vallès Occidental,VOC,Barcelona,2.178421008,41.58754343
34090808157,Pallejà,Baix Llobregat,BLL,Barcelona,1.996775252,41.422579897
34090808158,El Papiol,Baix Llobregat,BLL,Barcelona,2.010961168,41.438024248
34090808160,Perafita,Osona,OSO,Barcelona,2.106999046,42.042266806
34090808165,La Pobla de Claramunt,Anoia,ANO,Barcelona,1.675296009,41.555022308
34090808170,Els Prats de Rei,Anoia,ANO,Barcelona,1.542081512,41.705537756
34090808176,Pujalt,Anoia,ANO,Barcelona,1.422600785,41.71733521
34092525067,Castelldans,Garrigues,GAR,Lleida,0.765325275,41.496613288
34092525076,El Cogul,Garrigues,GAR,Lleida,0.689520695,41.466722315
34092525105,Granyena de les Garrigues,Garrigues,GAR,Lleida,0.650071322,41.432562442
34092525111,Guixers,Solsonès,SOL,Lleida,1.666343154,42.132434068
34090808281,Teià,Maresme,MAR,Barcelona,2.319824033,41.499674133
34090808203,Sant Cebrià de Vallalta,Maresme,MAR,Barcelona,2.599410003,41.619470995
34090808178,Rajadell,Bages,BAG,Barcelona,1.70622668,41.727696301
34090808179,Rellinars,Vallès Occidental,VOC,Barcelona,1.910774943,41.637431146
34090808183,Roda de Ter,Osona,OSO,Barcelona,2.309491592,41.980805565
34090808192,Santpedor,Bages,BAG,Barcelona,1.839177662,41.783273365
34090808194,Sant Adrià de Besòs,Barcelonès,BAR,Barcelona,2.217787409,41.430067423
34090808197,Sant Andreu de Llavaneres,Maresme,MAR,Barcelona,2.483347205,41.574458666
34090808200,Sant Boi de Llobregat,Baix Llobregat,BLL,Barcelona,2.042704219,41.347524275
34090808206,Sant Cugat Sesgarrigues,Alt Penedès,APE,Barcelona,1.75236167,41.362615136
34094343134,El Rourell,Alt Camp,ACA,Tarragona,1.217774332,41.224874495
34090808204,Sant Climent de Llobregat,Baix Llobregat,BLL,Barcelona,1.996420408,41.337070695
34090808207,Sant Esteve de Palautordera,Vallès Oriental,VOR,Barcelona,2.435177772,41.70353973
34090808230,Premià de Dalt,Maresme,MAR,Barcelona,2.34246115,41.507311014
34090808209,Sant Fost de Campsentelles,Vallès Oriental,VOR,Barcelona,2.232936617,41.518757192
34090808210,Sant Feliu de Codines,Vallès Oriental,VOR,Barcelona,2.164546597,41.688918231
34090808211,Sant Feliu de Llobregat,Baix Llobregat,BLL,Barcelona,2.046230144,41.381953246
34090808212,Sant Feliu Sasserra,Bages,BAG,Barcelona,2.022486759,41.944812194
34090808213,Sant Fruitós de Bages,Bages,BAG,Barcelona,1.87327387,41.750674624
34092525097,Fulleda,Garrigues,GAR,Lleida,1.02431182,41.463053091
34090808214,Vilassar de Dalt,Maresme,MAR,Barcelona,2.359477069,41.516990794
34090808217,Sant Joan Despí,Baix Llobregat,BLL,Barcelona,2.054954782,41.367821674
34090808218,Sant Joan de Vilatorrada,Bages,BAG,Barcelona,1.804848323,41.745507159
34090808220,Sant Julià de Vilatorta,Osona,OSO,Barcelona,2.324497728,41.922295539
34090808223,Sant Llorenç Savall,Vallès Occidental,VOC,Barcelona,2.059726584,41.679382905
34090808226,Sant Martí de Tous,Anoia,ANO,Barcelona,1.523004887,41.560600095
34090808282,Tiana,Maresme,MAR,Barcelona,2.269019357,41.481728482
34090808244,Santa Coloma de Cervelló,Baix Llobregat,BLL,Barcelona,2.016180072,41.368972821
34090808231,Sant Pere de Ribes,Garraf,GAF,Barcelona,1.772114573,41.262303316
34090808232,Sant Pere de Riudebitlles,Alt Penedès,APE,Barcelona,1.701326925,41.453194474
34090808234,Sant Pere de Vilamajor,Vallès Oriental,VOR,Barcelona,2.390629567,41.685018969
34090808235,Sant Pol de Mar,Maresme,MAR,Barcelona,2.621160222,41.600222588
34092525008,Albesa,Noguera,NOG,Lleida,0.659485934,41.750716082
34090808289,Torrelles de Llobregat,Baix Llobregat,BLL,Barcelona,1.981109195,41.359047821
34090808245,Santa Coloma de Gramenet,Barcelonès,BAR,Barcelona,2.207934468,41.452149345
34090808237,Sant Quirze de Besora,Osona,OSO,Barcelona,2.22222543,42.100285391
34090808304,Vilobí del Penedès,Alt Penedès,APE,Barcelona,1.663622541,41.390244586
34090808240,Sant Sadurní d'Anoia,Alt Penedès,APE,Barcelona,1.787300544,41.424211608
34090808241,Sant Sadurní d'Osormort,Osona,OSO,Barcelona,2.381388572,41.901856926
34090808246,Santa Eugènia de Berga,Osona,OSO,Barcelona,2.283148117,41.900358528
34090808247,Santa Eulàlia de Riuprimer,Osona,OSO,Barcelona,2.188605638,41.910889845
34090808248,Santa Eulàlia de Ronçana,Vallès Oriental,VOR,Barcelona,2.229205451,41.652345584
34090808249,Santa Fe del Penedès,Alt Penedès,APE,Barcelona,1.721265848,41.384450014
34090808265,Sant Vicenç de Torelló,Osona,OSO,Barcelona,2.274015277,42.062600723
34090808250,Santa Margarida de Montbui,Anoia,ANO,Barcelona,1.608065901,41.57382772
34090808251,Santa Margarida i els Monjos,Alt Penedès,APE,Barcelona,1.663058723,41.321375173
34090808252,Barberà del Vallès,Vallès Occidental,VOC,Barcelona,2.124669407,41.515796362
34090808256,Santa Maria de Martorelles,Vallès Oriental,VOR,Barcelona,2.253349207,41.519575973
34090808257,Santa Maria de Miralles,Anoia,ANO,Barcelona,1.525443659,41.518035348
34090808259,Santa Maria de Palautordera,Vallès Oriental,VOR,Barcelona,2.44609648,41.692987137
34090808260,Santa Perpètua de Mogoda,Vallès Occidental,VOC,Barcelona,2.183444726,41.534575829
34090808261,Santa Susanna,Maresme,MAR,Barcelona,2.707068724,41.635503771
34090808262,Sant Vicenç de Castellet,Bages,BAG,Barcelona,1.863615971,41.665552401
34090808264,Sant Vicenç de Montalt,Maresme,MAR,Barcelona,2.508766296,41.579019541
34090808266,Cerdanyola del Vallès,Vallès Occidental,VOC,Barcelona,2.140715332,41.491023421
34090808267,Sentmenat,Vallès Occidental,VOC,Barcelona,2.136193226,41.60925884
34090808275,Tavèrnoles,Osona,OSO,Barcelona,2.326511576,41.952148295
34090808283,Tona,Osona,OSO,Barcelona,2.229175918,41.850021542
34090808285,Torelló,Osona,OSO,Barcelona,2.260585184,42.047131929
34090808019,Barcelona,Barcelonès,BAR,Barcelona,2.177241106,41.382405393
34090808286,La Torre de Claramunt,Anoia,ANO,Barcelona,1.658209642,41.533575596
34090808290,Ullastrell,Vallès Occidental,VOC,Barcelona,1.956888262,41.526903687
34090808287,Torrelavit,Alt Penedès,APE,Barcelona,1.729905868,41.44634498
34090808294,Vallgorguina,Vallès Oriental,VOR,Barcelona,2.511522938,41.647259881
34090808296,Vallromanes,Vallès Oriental,VOR,Barcelona,2.298353915,41.531842947
34090808297,Veciana,Anoia,ANO,Barcelona,1.488662991,41.655976833
34090808301,Viladecans,Baix Llobregat,BLL,Barcelona,2.019652409,41.315896769
34090808302,Vilanova del Camí,Anoia,ANO,Barcelona,1.634199238,41.572258552
34090808306,Vilalba Sasserra,Vallès Oriental,VOR,Barcelona,2.44112064,41.652858568
34090808902,Vilanova del Vallès,Vallès Oriental,VOR,Barcelona,2.288998615,41.554056558
34090808903,Sant Julià de Cerdanyola,Berguedà,BER,Barcelona,1.892917871,42.223842931
34090808905,La Palma de Cervelló,Baix Llobregat,BLL,Barcelona,1.971237761,41.411203329
34090808195,Sant Agustí de Lluçanès,Osona,OSO,Barcelona,2.126789136,42.085605003
34090808006,Arenys de Mar,Maresme,MAR,Barcelona,2.551624094,41.579533962
34090808069,Collbató,Baix Llobregat,BLL,Barcelona,1.829521495,41.567296368
34090808216,Sant Jaume de Frontanyà,Berguedà,BER,Barcelona,2.025486574,42.186416389
34091717046,Castellfollit de la Roca,Garrotxa,GAX,Girona,2.549651308,42.219498788
34090808024,Borredà,Berguedà,BER,Barcelona,1.993986452,42.135636365
34090808025,El Bruc,Anoia,ANO,Barcelona,1.780059385,41.580734449
34090808189,Sant Pere Sallavinera,Anoia,ANO,Barcelona,1.572465286,41.736524189
34033333037,Mieres,Garrotxa,GAX,Girona,2.639889942,42.124160173
34091717901,"Cruïlles, Monells i Sant Sadurní de l'Heura",Baix Empordà,BEM,Girona,2.990943737,41.956416241
34091717192,Setcases,Ripollès,RIP,Girona,2.30136792,42.374963688
34092525092,La Floresta,Garrigues,GAR,Lleida,0.919841953,41.50984771
34092525907,Torrefeta i Florejacs,Segarra,SGA,Lleida,1.274869878,41.754433142
34092525101,La Granadella,Garrigues,GAR,Lleida,0.665377869,41.355227658
34092525072,Cervera,Segarra,SGA,Lleida,1.27125747,41.665808322
34091717172,Sant Martí de Llémena,Gironès,GIR,Girona,2.647611077,42.036154202
34092525017,Alins,Pallars Sobirà,PSO,Lleida,1.318664825,42.548708285
34092525024,Alt Àneu,Pallars Sobirà,PSO,Lleida,1.108575263,42.633973639
34092525025,Naut Aran,Val d'Aran,VAR,Lleida,0.902445048,42.707192461
34092525029,Arbeca,Garrigues,GAR,Lleida,0.924966081,41.542238314
34092525055,Biosca,Segarra,SGA,Lleida,1.358077757,41.841632386
34092525056,Bovera,Garrigues,GAR,Lleida,0.638921343,41.326541757
34092525223,Torà,Segarra,SGA,Lleida,1.402811908,41.812991733
34094343168,Vilanova de Prades,Conca de Barberà,CBA,Tarragona,0.956407714,41.34808373
34094343117,Prat de Comte,Terra Alta,TAL,Tarragona,0.405237276,40.983568145
34094343118,Pratdip,Baix Camp,BCA,Tarragona,0.871294807,41.051178749
34094343120,Querol,Alt Camp,ACA,Tarragona,1.397736804,41.423311341
34091717015,Banyoles,Pla de l'Estany,PES,Girona,2.763796776,42.116399088
34091717149,Riudaura,Garrotxa,GAX,Girona,2.407573106,42.188457479
34091717165,Sant Jaume de Llierca,Garrotxa,GAX,Girona,2.607486515,42.211704253
34091717185,Sant Joan les Fonts,Garrotxa,GAX,Girona,2.511051067,42.212650492
34091717042,Capmany,Alt Empordà,AEM,Girona,2.920941486,42.372624586
34092525058,Les Borges Blanques,Garrigues,GAR,Lleida,0.86916301,41.520628499
34092525036,Aspa,Segrià,SGR,Lleida,0.672320658,41.495646828
34092525132,Massoteres,Segarra,SGA,Lleida,1.310765521,41.797264755
34094343030,Bonastre,Baix Penedès,BPE,Tarragona,1.439913737,41.22061386
34094343121,Rasquera,Ribera d'Ebre,REB,Tarragona,0.597134391,41.00136649
34091717084,Isòvol,Cerdanya,CER,Girona,1.837272363,42.397709757
34091717099,Meranges,Cerdanya,CER,Girona,1.786916351,42.445774428
34094343144,La Secuita,Tarragonès,TAR,Tarragona,1.279347632,41.203240508
34091717109,Montagut i Oix,Garrotxa,GAX,Girona,2.59616617,42.23146439
34091717117,Palafrugell,Baix Empordà,BEM,Girona,3.164065976,41.914954578
34091717118,Palamós,Baix Empordà,BEM,Girona,3.129581349,41.846660808
34094343122,Renau,Tarragonès,TAR,Tarragona,1.31123847,41.225338359
34092525034,Artesa de Segre,Noguera,NOG,Lleida,1.045473965,41.895438373
34092525009,L'Albi,Garrigues,GAR,Lleida,0.936040777,41.423287263
34092525002,Àger,Noguera,NOG,Lleida,0.763537783,41.99921535
34092525006,L'Albagés,Garrigues,GAR,Lleida,0.739237187,41.44879641
34092525254,Vilanova de la Barca,Segrià,SGR,Lleida,0.728766743,41.691061101
34092525255,Vinaixa,Garrigues,GAR,Lleida,0.975099399,41.428421621
34092525190,Salàs de Pallars,Pallars Jussà,PJU,Lleida,0.931464895,42.212545123
34092525227,La Torre de Cabdella,Pallars Jussà,PJU,Lleida,0.982329839,42.421931352
34092525230,Torregrossa,Pla d'Urgell,PUR,Lleida,0.831905372,41.580115168
34092525243,Vielha e Mijaran,Val d'Aran,VAR,Lleida,0.795126455,42.70191316
34092525253,El Vilosell,Garrigues,GAR,Lleida,0.94660253,41.383296411
34092525902,Sant Martí de Riucorb,Urgell,URG,Lleida,1.053125669,41.560099254
34092525903,La Guingueta d'Àneu,Pallars Sobirà,PSO,Lleida,1.131988036,42.594296717
34092525913,Riu de Cerdanya,Cerdanya,CER,Lleida,1.82627168,42.345554848
34094343038,Cambrils,Baix Camp,BCA,Tarragona,1.057802277,41.071033929
34094343044,La Sénia,Montsià,MON,Tarragona,0.285251665,40.633328162
34094343060,Flix,Ribera d'Ebre,REB,Tarragona,0.549946451,41.231281807
34094343086,Montblanc,Conca de Barberà,CBA,Tarragona,1.161386523,41.376776963
34094343111,La Pobla de Montornès,Tarragonès,TAR,Tarragona,1.414486274,41.178823239
34094343176,Vimbodí i Poblet,Conca de Barberà,CBA,Tarragona,1.051107112,41.400326003
34094343901,Deltebre,Baix Ebre,BEB,Tarragona,0.722777588,40.719605167
34094343905,Salou,Tarragonès,TAR,Tarragona,1.133565772,41.081176735
34094343906,L'Ampolla,Baix Ebre,BEB,Tarragona,0.714340607,40.814206799
34094343178,Vinyols i els Arcs,Baix Camp,BCA,Tarragona,1.039134837,41.113623977
34091717070,Fontanilles,Baix Empordà,BEM,Girona,3.108405998,42.009936643
34091717138,Portbou,Alt Empordà,AEM,Girona,3.16246997,42.426380488
34091717139,Les Preses,Garrotxa,GAX,Girona,2.460804364,42.142156741
34091717140,El Port de la Selva,Alt Empordà,AEM,Girona,3.204538207,42.338598087
34091717141,Puigcerdà,Cerdanya,CER,Girona,1.926947695,42.432630325
34091717218,Vilademuls,Pla de l'Estany,PES,Girona,2.887964208,42.1385121
34094343132,Rodonyà,Alt Camp,ACA,Tarragona,1.399037098,41.280036576
34091717008,Anglès,Selva,SEL,Girona,2.637779014,41.956819939
34091717216,Viladasens,Gironès,GIR,Girona,2.92969952,42.095331853
34092525045,Bausen,Val d'Aran,VAR,Lleida,0.716292102,42.834775548
34092525078,Corbins,Segrià,SGR,Lleida,0.692910362,41.690650989
34094343028,La Bisbal del Penedès,Baix Penedès,BPE,Tarragona,1.487744296,41.280475727
34094343105,Les Piles,Conca de Barberà,CBA,Tarragona,1.342395363,41.503834423
34094343126,La Riera de Gaià,Tarragonès,TAR,Tarragona,1.361392723,41.164840255
34094343160,Vallmoll,Alt Camp,ACA,Tarragona,1.248902308,41.242653112
34094343172,Vilaverd,Conca de Barberà,CBA,Tarragona,1.177353406,41.336869769
34094343123,Reus,Baix Camp,BCA,Tarragona,1.108491969,41.155016386
34092525096,La Fuliola,Urgell,URG,Lleida,1.019023032,41.714560321
34094343140,Santa Oliva,Baix Penedès,BPE,Tarragona,1.549441975,41.253481475
34094343125,Riba-roja d'Ebre,Ribera d'Ebre,REB,Tarragona,0.487657559,41.250925064
34094343127,Riudecanyes,Baix Camp,BCA,Tarragona,0.96095419,41.130019804
34091717074,Fortià,Alt Empordà,AEM,Girona,3.040426933,42.242434209
34091717100,Masarac,Alt Empordà,AEM,Girona,2.972460262,42.3509675
34091717055,Colomers,Baix Empordà,BEM,Girona,2.987081633,42.084382369
34092525019,Almacelles,Segrià,SGR,Lleida,0.436732426,41.731581971
34092525099,Golmés,Pla d'Urgell,PUR,Lleida,0.933110148,41.632608254
34094343135,Salomó,Tarragonès,TAR,Tarragona,1.374788777,41.22901123
34094343128,Riudecols,Baix Camp,BCA,Tarragona,0.9762538,41.168862354
34094343131,Roda de Berà,Tarragonès,TAR,Tarragona,1.456926185,41.186001973
34091717225,Vilamacolum,Alt Empordà,AEM,Girona,3.056959228,42.196580051
34091717226,Vilamalla,Alt Empordà,AEM,Girona,2.970718914,42.21719177
34094343170,Vila-rodona,Alt Camp,ACA,Tarragona,1.358321566,41.310904342
34092525013,Alfarràs,Segrià,SGR,Lleida,0.56965673,41.829992693
34091717130,La Pera,Baix Empordà,BEM,Girona,2.973590405,42.020496326
34092525143,Montornès de Segarra,Segarra,SGA,Lleida,1.230695659,41.601065545
34091717168,Sant Joan de Mollet,Gironès,GIR,Girona,2.942815805,42.045811937
34094343097,La Nou de Gaià,Tarragonès,TAR,Tarragona,1.373803061,41.182833516
34090808012,Avinyó,Bages,BAG,Barcelona,1.970760811,41.863381428
34090808016,Bagà,Berguedà,BER,Barcelona,1.86260099,42.252852974
34090808022,Berga,Berguedà,BER,Barcelona,1.845845087,42.1037619
34090808026,El Brull,Osona,OSO,Barcelona,2.305489017,41.816741112
34090808033,Caldes de Montbui,Vallès Oriental,VOR,Barcelona,2.162240112,41.634590716
34090808047,Cardona,Bages,BAG,Barcelona,1.680327797,41.913110351
34090808064,Castellterçol,Moianès,MOI,Barcelona,2.12050299,41.751561829
34090808066,Castellví de Rosanes,Baix Llobregat,BLL,Barcelona,1.89951114,41.450055318
34091717024,Bolvir,Cerdanya,CER,Girona,1.879863587,42.418480249
34090808072,Corbera de Llobregat,Baix Llobregat,BLL,Barcelona,1.927701004,41.416102388
34090808075,Dosrius,Maresme,MAR,Barcelona,2.405853754,41.594675414
34090808078,L'Espunyola,Berguedà,BER,Barcelona,1.767745419,42.053555772
34091717121,Palau-sator,Baix Empordà,BEM,Girona,3.111179563,41.989327893
34091717026,Borrassà,Alt Empordà,AEM,Girona,2.926166502,42.223058847
34090808125,Montcada i Reixac,Vallès Occidental,VOC,Barcelona,2.187770377,41.485795664
34090808129,Muntanyola,Osona,OSO,Barcelona,2.177584873,41.878409918
34090808137,Montseny,Vallès Oriental,VOR,Barcelona,2.395354738,41.759153989
34090808138,Moià,Moianès,MOI,Barcelona,2.096923027,41.812869119
34090808139,Mura,Bages,BAG,Barcelona,1.976188317,41.699541071
34092525004,Els Alamús,Segrià,SGR,Lleida,0.738550669,41.61570667
34090808276,Tagamanent,Vallès Oriental,VOR,Barcelona,2.267717476,41.738443598
34090808145,Olèrdola,Alt Penedès,APE,Barcelona,1.721133883,41.321018469
34090808147,Olesa de Montserrat,Baix Llobregat,BLL,Barcelona,1.893900541,41.543505944
34090808151,Oristà,Osona,OSO,Barcelona,2.060357752,41.932365764
34091717002,Aiguaviva,Gironès,GIR,Girona,2.762375415,41.938086424
34090808227,Sant Martí Sarroca,Alt Penedès,APE,Barcelona,1.610944411,41.385315444
34091717175,Sant Miquel de Fluvià,Alt Empordà,AEM,Girona,2.991883821,42.172159932
34090808017,Balenyà,Osona,OSO,Barcelona,2.235188771,41.815372171
34091717214,Vilabertran,Alt Empordà,AEM,Girona,2.979693865,42.283562459
34090808268,Cercs,Berguedà,BER,Barcelona,1.861924391,42.146050305
34090808269,Seva,Osona,OSO,Barcelona,2.280295766,41.838635065
34090808273,Subirats,Alt Penedès,APE,Barcelona,1.794652615,41.382413953
34094343079,Masllorenç,Baix Penedès,BPE,Tarragona,1.415351919,41.26962478
34091717166,Sant Jordi Desvalls,Gironès,GIR,Girona,2.953539082,42.072088934
34092525131,Massalcoreig,Segrià,SGR,Lleida,0.359348357,41.459164073
34090808233,Sant Pere de Torelló,Osona,OSO,Barcelona,2.29610097,42.075495183
34090808238,Sant Quirze del Vallès,Vallès Occidental,VOC,Barcelona,2.080999131,41.532839537
34090808239,Sant Quirze Safaja,Moianès,MOI,Barcelona,2.153080364,41.727307423
34090808254,L'Esquirol,Osona,OSO,Barcelona,2.368244029,42.035508055
34090808255,Santa Maria de Merlès,Berguedà,BER,Barcelona,1.978376645,42.000962639
34090808258,Santa Maria d'Oló,Moianès,MOI,Barcelona,2.035571761,41.872175793
34091717005,El Far d'Empordà,Alt Empordà,AEM,Girona,2.996371933,42.251947369
34091717052,Siurana,Alt Empordà,AEM,Girona,2.99449618,42.20934742
34092525041,Barbens,Pla d'Urgell,PUR,Lleida,1.018365545,41.679218887
34090808278,Taradell,Osona,OSO,Barcelona,2.286813911,41.873810657
34090808284,Tordera,Maresme,MAR,Barcelona,2.718763122,41.699024613
34091717128,Pau,Alt Empordà,AEM,Girona,3.1168817,42.316236729
34091717025,Bordils,Gironès,GIR,Girona,2.911498031,42.044044953
34090808293,Vallcebre,Berguedà,BER,Barcelona,1.818586195,42.20333326
34090808288,Torrelles de Foix,Alt Penedès,APE,Barcelona,1.568940183,41.388472471
34094343907,La Canonja,Tarragonès,TAR,Tarragona,1.178965575,41.122908604
34092525121,Les,Val d'Aran,VAR,Lleida,0.709878949,42.810153433
34092525114,Ivorra,Segarra,SGA,Lleida,1.395661121,41.771461716
34091717076,Garrigoles,Baix Empordà,BEM,Girona,3.030486814,42.107219364
34091717004,Albons,Baix Empordà,BEM,Girona,3.085200894,42.104246344
34091717067,Flaçà,Gironès,GIR,Girona,2.958136746,42.047097396
34094343080,La Masó,Alt Camp,ACA,Tarragona,1.222709035,41.234805901
34090808168,Pontons,Alt Penedès,APE,Barcelona,1.516619317,41.415735872
34092525244,Vilagrassa,Urgell,URG,Lleida,1.106432042,41.64824278
34090808175,Puig-reig,Berguedà,BER,Barcelona,1.87898946,41.97413283
34090808169,El Prat de Llobregat,Baix Llobregat,BLL,Barcelona,2.093044846,41.330736272
34090808177,La Quar,Berguedà,BER,Barcelona,1.96148824,42.080887623
34090808181,La Roca del Vallès,Vallès Oriental,VOR,Barcelona,2.325763581,41.587568707
34090808182,El Pont de Vilomara i Rocafort,Bages,BAG,Barcelona,1.87062396,41.700065814
34090808187,Sabadell,Vallès Occidental,VOC,Barcelona,2.108551925,41.546378033
34090808188,Sagàs,Berguedà,BER,Barcelona,1.961603058,42.050834225
34090808191,Sallent,Bages,BAG,Barcelona,1.894674687,41.824062842
34090808001,Abrera,Baix Llobregat,BLL,Barcelona,1.902237925,41.5162579
34094343112,Poboleda,Priorat,PRI,Tarragona,0.845276091,41.232702878
34094343024,Bellvei,Baix Penedès,BPE,Tarragona,1.576455639,41.241343346
34090808202,Sant Celoni,Vallès Oriental,VOR,Barcelona,2.49251912,41.689962987
34090808208,Sant Esteve Sesrovires,Baix Llobregat,BLL,Barcelona,1.874365808,41.493245315
34092525048,Bell-lloc d'Urgell,Pla d'Urgell,PUR,Lleida,0.779505499,41.630022034
34091717129,Pedret i Marzà,Alt Empordà,AEM,Girona,3.068686953,42.310205822
34091717011,L'Armentera,Alt Empordà,AEM,Girona,3.072517841,42.17086694
34091717014,La Vajol,Alt Empordà,AEM,Girona,2.800342985,42.403780725
34090808291,Vacarisses,Vallès Occidental,VOC,Barcelona,1.918781001,41.605936862
34091717106,Mollet de Peralada,Alt Empordà,AEM,Girona,3.000572131,42.358588473
34091717126,Parlavà,Baix Empordà,BEM,Girona,3.031775971,42.023843802
34092525049,Bellmunt d'Urgell,Noguera,NOG,Lleida,0.952239022,41.773871046
34091717153,Rupià,Baix Empordà,BEM,Girona,3.0106476,42.020435613
34091717155,Salt,Gironès,GIR,Girona,2.792056075,41.975053949
34092525032,Arsèguel,Alt Urgell,AUR,Lleida,1.582876907,42.350100718
34091717204,Ullà,Baix Empordà,BEM,Girona,3.107742163,42.050813703
34090808303,Vilanova de Sau,Osona,OSO,Barcelona,2.384824808,41.94711624
34090808307,Vilanova i la Geltrú,Garraf,GAF,Barcelona,1.726180234,41.224111138
34090808308,Viver i Serrateix,Berguedà,BER,Barcelona,1.778623024,41.94672926
34091717176,Sant Mori,Alt Empordà,AEM,Girona,2.991477146,42.152921724
34090808298,Vic,Osona,OSO,Barcelona,2.254264193,41.929967609
34091717188,La Selva de Mar,Alt Empordà,AEM,Girona,3.186985848,42.324474721
34090808300,Viladecavalls,Vallès Occidental,VOC,Barcelona,1.954375361,41.555330455
34091717211,Verges,Baix Empordà,BEM,Girona,3.046671526,42.060433814
34091717158,Sant Climent Sescebes,Alt Empordà,AEM,Girona,2.980043309,42.368981257
34090808051,Castellar del Vallès,Vallès Occidental,VOC,Barcelona,2.087635113,41.618557011
34090808053,Castellbell i el Vilar,Bages,BAG,Barcelona,1.860478136,41.629392366
34092525012,Alcoletge,Segrià,SGR,Lleida,0.694256215,41.647010196
34090808058,Castellet i la Gornal,Alt Penedès,APE,Barcelona,1.590703884,41.253400018
34090808059,Castellfollit del Boix,Bages,BAG,Barcelona,1.683366337,41.667189158
34091717903,Sant Julià del Llor i Bonmatí,Selva,SEL,Girona,2.669926096,41.968193099
34091717018,Bellcaire d'Empordà,Baix Empordà,BEM,Girona,3.094515204,42.081011145
34090808089,Gavà,Baix Llobregat,BLL,Barcelona,2.004774201,41.306118866
34090808093,Gisclareny,Berguedà,BER,Barcelona,1.786464763,42.250037078
34090808095,Granera,Moianès,MOI,Barcelona,2.057173474,41.725417156
34090808100,Gurb,Osona,OSO,Barcelona,2.243276016,41.940489059
34090808106,Llinars del Vallès,Vallès Oriental,VOR,Barcelona,2.404620012,41.639151852
34090808104,La Llacuna,Anoia,ANO,Barcelona,1.532021048,41.472480457
34090808109,Lluçà,Osona,OSO,Barcelona,2.073264042,42.068082291
34090808117,Les Masies de Voltregà,Osona,OSO,Barcelona,2.23487791,42.022393728
34091717030,Cabanes,Alt Empordà,AEM,Girona,2.978060207,42.307207727
34091717029,Boadella i les Escaules,Alt Empordà,AEM,Girona,2.857547428,42.331087464
34091717090,Llambilles,Gironès,GIR,Girona,2.859278593,41.921051566
34091717191,Serra de Daró,Baix Empordà,BEM,Girona,3.072558712,42.027618138
34091717171,Sant Llorenç de la Muga,Alt Empordà,AEM,Girona,2.790097926,42.320670567
34091717120,Palau-saverdera,Alt Empordà,AEM,Girona,3.14812057,42.30735638
34091717027,Breda,Selva,SEL,Girona,2.558967397,41.748485681
34091717081,Gualta,Baix Empordà,BEM,Girona,3.103665683,42.02849475
34091717001,Agullana,Alt Empordà,AEM,Girona,2.846385617,42.394097857
34091717007,Amer,Selva,SEL,Girona,2.603222047,42.009133826
34091717020,Bescanó,Gironès,GIR,Girona,2.743365182,41.965403352
34091717009,Arbúcies,Selva,SEL,Girona,2.513754625,41.816004313
34091717087,Juià,Gironès,GIR,Girona,2.907342846,42.017949485
34091717016,Bàscara,Alt Empordà,AEM,Girona,2.91017634,42.159561565
34091717019,Besalú,Garrotxa,GAX,Girona,2.699326775,42.198886073
34091717022,La Bisbal d'Empordà,Baix Empordà,BEM,Girona,3.038149687,41.959301158
34091717057,Corçà,Baix Empordà,BEM,Girona,3.017294311,41.989821083
34091717088,Lladó,Alt Empordà,AEM,Girona,2.813404691,42.247698821
34091717061,Das,Cerdanya,CER,Girona,1.870114118,42.361620403
34091717033,Caldes de Malavella,Selva,SEL,Girona,2.809763769,41.838975945
34091717041,Cantallops,Alt Empordà,AEM,Girona,2.925957603,42.422682424
34091717043,Queralbs,Ripollès,RIP,Girona,2.162693687,42.34849447
34091717049,Celrà,Gironès,GIR,Girona,2.874392042,42.026555381
34091717044,Cassà de la Selva,Gironès,GIR,Girona,2.874290931,41.884851215
34091717078,Ger,Cerdanya,CER,Girona,1.845525258,42.410628541
34091717050,Cervià de Ter,Gironès,GIR,Girona,2.910632032,42.067236264
34091717051,Cistella,Alt Empordà,AEM,Girona,2.848205461,42.268464384
34091717068,Foixà,Baix Empordà,BEM,Girona,2.998025075,42.038863738
34091717063,Espinelves,Osona,OSO,Girona,2.417880772,41.868866418
34091717060,Darnius,Alt Empordà,AEM,Girona,2.832141614,42.368212507
34091717064,Espolla,Alt Empordà,AEM,Girona,3.000690169,42.391272928
34091717066,Figueres,Alt Empordà,AEM,Girona,2.960886614,42.267209601
34091717069,Fontanals de Cerdanya,Cerdanya,CER,Girona,1.899470415,42.384997027
34091717073,Fornells de la Selva,Gironès,GIR,Girona,2.810456867,41.934626922
34091717075,Garrigàs,Alt Empordà,AEM,Girona,2.954141859,42.193496419
34091717077,Garriguella,Alt Empordà,AEM,Girona,3.064692114,42.344512518
34092525134,Menàrguens,Noguera,NOG,Lleida,0.743889689,41.729138822
34091717091,Llanars,Ripollès,RIP,Girona,2.344137229,42.320954482
34091717082,Guils de Cerdanya,Cerdanya,CER,Girona,1.879209626,42.448382255
34091717189,La Cellera de Ter,Selva,SEL,Girona,2.622234819,41.967469921
34091717079,Girona,Gironès,GIR,Girona,2.824865628,41.983155443
34091717089,Llagostera,Gironès,GIR,Girona,2.891817464,41.828810091
34091717093,Llers,Alt Empordà,AEM,Girona,2.911609249,42.29630565
34091717101,Massanes,Selva,SEL,Girona,2.651939379,41.766458206
34092525197,Sant Guim de la Plana,Segarra,SGA,Lleida,1.324595827,41.763017071
34091717094,Llívia,Cerdanya,CER,Girona,1.981799668,42.465078641
34091717095,Lloret de Mar,Selva,SEL,Girona,2.847602852,41.698615649
34091717096,Les Llosses,Ripollès,RIP,Girona,2.119950002,42.150948452
34091717097,Madremanya,Gironès,GIR,Girona,2.957521494,41.990256196
34091717102,Maçanet de Cabrenys,Alt Empordà,AEM,Girona,2.750387891,42.386056512
34091717157,Sant Andreu Salou,Gironès,GIR,Girona,2.825520191,41.873359247
34091717103,Maçanet de la Selva,Selva,SEL,Girona,2.731325675,41.776371392
34091717105,Mieres,Garrotxa,GAX,Girona,2.639889942,42.124160173
34092525021,Almenar,Segrià,SGR,Lleida,0.567375973,41.79806557
34091717107,Molló,Ripollès,RIP,Girona,2.404208714,42.346805311
34091717115,Ordis,Alt Empordà,AEM,Girona,2.906720201,42.218772993
34091717110,Mont-ras,Baix Empordà,BEM,Girona,3.144717363,41.907723904
34091717111,Navata,Alt Empordà,AEM,Girona,2.860538506,42.223745726
34091717112,Ogassa,Ripollès,RIP,Girona,2.277413077,42.265841438
34091717114,Olot,Garrotxa,GAX,Girona,2.484354623,42.183182657
34091717116,Osor,Selva,SEL,Girona,2.556211062,41.945603494
34091717119,Palau de Santa Eulàlia,Alt Empordà,AEM,Girona,2.964362863,42.173541826
34091717124,Pals,Baix Empordà,BEM,Girona,3.145078573,41.971077096
34092525015,Algerri,Noguera,NOG,Lleida,0.638489583,41.815807085
34091717132,Peralada,Alt Empordà,AEM,Girona,3.00798995,42.30792626
34091717136,Pontós,Alt Empordà,AEM,Girona,2.916807482,42.186731952
34091717134,Planoles,Ripollès,RIP,Girona,2.103610131,42.316346786
34091717135,Pont de Molins,Alt Empordà,AEM,Girona,2.925538693,42.314643076
34091717151,Riumors,Alt Empordà,AEM,Girona,3.043026927,42.226829518
34091717142,Quart,Gironès,GIR,Girona,2.839936624,41.939769466
34091717173,Sant Martí Vell,Gironès,GIR,Girona,2.931303885,42.019812556
34091717143,Rabós,Alt Empordà,AEM,Girona,3.027717715,42.379336378
34091717232,Vilopriu,Baix Empordà,BEM,Girona,2.992290918,42.104206187
34091717144,Regencós,Baix Empordà,BEM,Girona,3.171880236,41.952855039
34091717145,Ribes de Freser,Ripollès,RIP,Girona,2.167926705,42.306312153
34091717146,Riells i Viabrea,Selva,SEL,Girona,2.557623335,41.72528733
34092525069,Castelló de Farfanya,Noguera,NOG,Lleida,0.727346844,41.820267282
34091717148,Riudarenes,Selva,SEL,Girona,2.716505285,41.821938227
34091717150,Riudellots de la Selva,Selva,SEL,Girona,2.803237748,41.893192493
34091717187,"Saus, Camallera i Llampaies",Alt Empordà,AEM,Girona,2.963730612,42.12326353
34091717159,Sant Feliu de Buixalleu,Selva,SEL,Girona,2.60708759,41.735441219
34091717160,Sant Feliu de Guíxols,Baix Empordà,BEM,Girona,3.028398912,41.780447696
34091717161,Sant Feliu de Pallerols,Garrotxa,GAX,Girona,2.50747617,42.075439195
34091717162,Sant Ferriol,Garrotxa,GAX,Girona,2.71434161,42.194538263
34091717163,Sant Gregori,Gironès,GIR,Girona,2.759594318,41.990325643
34091717217,Viladamat,Alt Empordà,AEM,Girona,3.073817047,42.132750844
34091717164,Sant Hilari Sacalm,Selva,SEL,Girona,2.508315363,41.878843924
34091717180,Santa Coloma de Farners,Selva,SEL,Girona,2.662775243,41.861495834
34092525016,Alguaire,Segrià,SGR,Lleida,0.583741122,41.736183765
34091717183,Sant Aniol de Finestres,Garrotxa,GAX,Girona,2.614430985,42.062860322
34091717186,Sarrià de Ter,Gironès,GIR,Girona,2.825219512,42.017092751
34091717194,Susqueda,Selva,SEL,Girona,2.546874149,42.014140384
34091717233,Vilobí d'Onyar,Selva,SEL,Girona,2.742918474,41.88837663
34091717193,Sils,Selva,SEL,Girona,2.744337729,41.808583014
34091717203,Ultramort,Baix Empordà,BEM,Girona,3.034511785,42.036642729
34091717195,La Tallada d'Empordà,Baix Empordà,BEM,Girona,3.054785975,42.079641195
34091717196,Terrades,Alt Empordà,AEM,Girona,2.839005502,42.310105669
34091717197,Torrent,Baix Empordà,BEM,Girona,3.127563835,41.951913634
34091717198,Torroella de Fluvià,Alt Empordà,AEM,Girona,3.040533504,42.175269001
34091717201,Toses,Ripollès,RIP,Girona,2.016964383,42.321745481
34091717206,Urús,Cerdanya,CER,Girona,1.852098708,42.350634393
34091717209,Vall-llobrega,Baix Empordà,BEM,Girona,3.126951014,41.88053534
34091717210,Ventalló,Alt Empordà,AEM,Girona,3.026900742,42.149370605
34091717221,Vilafant,Alt Empordà,AEM,Girona,2.937795096,42.246633446
34091717213,Vidreres,Selva,SEL,Girona,2.780328583,41.789671144
34091717222,Vilaür,Alt Empordà,AEM,Girona,2.953885017,42.143537642
34092525033,Artesa de Lleida,Segrià,SGR,Lleida,0.703394598,41.551742575
34091717215,Vilablareix,Gironès,GIR,Girona,2.794042045,41.952774393
34092525027,Anglesola,Urgell,URG,Lleida,1.081418917,41.658996965
34091717223,Vilajuïga,Alt Empordà,AEM,Girona,3.094145391,42.327452601
34091717228,Vilanant,Alt Empordà,AEM,Girona,2.889153626,42.255001639
34091717220,Viladrau,Osona,OSO,Girona,2.38994519,41.847690592
34091717224,Vilallonga de Ter,Ripollès,RIP,Girona,2.312432131,42.331670299
34091717234,Biure,Alt Empordà,AEM,Girona,2.895078275,42.338090056
34091717902,Forallac,Baix Empordà,BEM,Girona,3.055092224,41.959744518
34092525001,Abella de la Conca,Pallars Jussà,PJU,Lleida,1.091706045,42.161287097
34092525005,Alàs i Cerc,Alt Urgell,AUR,Lleida,1.508172662,42.35162992
34092525003,Agramunt,Urgell,URG,Lleida,1.098635444,41.786969835
34092525007,Albatàrrec,Segrià,SGR,Lleida,0.605376149,41.573078617
34092525010,Alcanó,Segrià,SGR,Lleida,0.617145104,41.480448923
34092525011,Alcarràs,Segrià,SGR,Lleida,0.524318402,41.562873616
34092525020,Almatret,Segrià,SGR,Lleida,0.42358212,41.305565568
34092525014,Alfés,Segrià,SGR,Lleida,0.619339111,41.521417722
34092525022,Alòs de Balaguer,Noguera,NOG,Lleida,0.960531325,41.912589323
34092525023,Alpicat,Segrià,SGR,Lleida,0.55507915,41.666360775
34092525030,El Pont de Bar,Alt Urgell,AUR,Lleida,1.605152752,42.372213008
34092525031,Arres,Val d'Aran,VAR,Lleida,0.711147895,42.754979774
34092525086,Esterri d'Àneu,Pallars Sobirà,PSO,Lleida,1.123235174,42.628297816
34092525035,La Sentiu de Sió,Noguera,NOG,Lleida,0.877706518,41.805316871
34092525038,Aitona,Segrià,SGR,Lleida,0.458983454,41.494610388
34092525050,Bellpuig,Urgell,URG,Lleida,1.012110106,41.625654517
34092525037,Les Avellanes i Santa Linya,Noguera,NOG,Lleida,0.764299568,41.908109621
34092525047,Bellcaire d'Urgell,Noguera,NOG,Lleida,0.905573979,41.759238896
34092525039,Baix Pallars,Pallars Sobirà,PSO,Lleida,1.064357054,42.32360869
34092525040,Balaguer,Noguera,NOG,Lleida,0.804588928,41.789718661
34092525087,Esterri de Cardós,Pallars Sobirà,PSO,Lleida,1.262041281,42.592214719
34092525044,Bassella,Alt Urgell,AUR,Lleida,1.294293646,42.00590676
34092525046,Belianes,Urgell,URG,Lleida,1.017397869,41.56159093
34092525059,Bossòst,Val d'Aran,VAR,Lleida,0.691705542,42.783541931
34092525079,Cubells,Noguera,NOG,Lleida,0.95713334,41.852745537
34092525051,Bellver de Cerdanya,Cerdanya,CER,Lleida,1.774387211,42.37073001
34092525052,Bellvís,Pla d'Urgell,PUR,Lleida,0.817527266,41.672203636
34092525053,Benavent de Segrià,Segrià,SGR,Lleida,0.634522237,41.694451633
34092525057,Es Bòrdes,Val d'Aran,VAR,Lleida,0.719236909,42.738039379
34092525060,Cabanabona,Noguera,NOG,Lleida,1.217309912,41.851583775
34092525061,Cabó,Alt Urgell,AUR,Lleida,1.246936817,42.238864544
34092525063,Canejan,Val d'Aran,VAR,Lleida,0.738490358,42.838367921
34092525064,Castellar de la Ribera,Solsonès,SOL,Lleida,1.415558053,42.022652543
34092525075,Clariana de Cardener,Solsonès,SOL,Lleida,1.624774181,41.933915092
34092525102,La Granja d'Escarp,Segrià,SGR,Lleida,0.352158006,41.41837797
34092525077,Coll de Nargó,Alt Urgell,AUR,Lleida,1.315645723,42.173519574
34092525085,Estaràs,Segarra,SGA,Lleida,1.378411547,41.691960754
34092525094,Foradada,Noguera,NOG,Lleida,1.012813872,41.877156845
34092525081,L'Espluga Calba,Garrigues,GAR,Lleida,1.004775522,41.494915263
34092525082,Espot,Pallars Sobirà,PSO,Lleida,1.089974016,42.575409277
34092525093,Fondarella,Pla d'Urgell,PUR,Lleida,0.873515184,41.634642479
34092525088,Estamariu,Alt Urgell,AUR,Lleida,1.522838904,42.373433749
34092525104,Granyena de Segarra,Segarra,SGA,Lleida,1.246309237,41.623578532
34092525137,Mollerussa,Pla d'Urgell,PUR,Lleida,0.894030377,41.629810691
34092525089,Farrera,Pallars Sobirà,PSO,Lleida,1.271152918,42.504999611
34092525103,Granyanella,Segarra,SGA,Lleida,1.228114284,41.666441772
34092525109,Guimerà,Urgell,URG,Lleida,1.183629776,41.564205097
34092525098,Gavet de la Conca,Pallars Jussà,PJU,Lleida,0.920462441,42.123187991
34092525110,Guissona,Segarra,SGA,Lleida,1.288303003,41.784648383
34092525112,Ivars de Noguera,Noguera,NOG,Lleida,0.58584905,41.850336833
34092525174,La Portella,Segrià,SGR,Lleida,0.639175932,41.739635922
34092525122,Linyola,Pla d'Urgell,PUR,Lleida,0.904373528,41.710413416
34092525125,Llardecans,Segrià,SGR,Lleida,0.550502483,41.374094929
34092525115,Isona i Conca Dellà,Pallars Jussà,PJU,Lleida,1.043875564,42.116968562
34092525126,Llavorsí,Pallars Sobirà,PSO,Lleida,1.208870332,42.497460192
34092525194,Sant Ramon,Segarra,SGA,Lleida,1.358975924,41.724610291
34092525133,Maials,Segrià,SGR,Lleida,0.504199067,41.364881953
34092525128,Llimiana,Pallars Jussà,PJU,Lleida,0.916202262,42.075144065
34092525157,Ossó de Sió,Urgell,URG,Lleida,1.159428883,41.754635815
34092525138,Montgai,Noguera,NOG,Lleida,0.961368967,41.799907977
34092525129,Llobera,Solsonès,SOL,Lleida,1.463218405,41.92241632
34092525135,Miralcamp,Pla d'Urgell,PUR,Lleida,0.88020209,41.604594086
34092525139,Montellà i Martinet,Cerdanya,CER,Lleida,1.695252157,42.360120314
34092525149,Oliana,Alt Urgell,AUR,Lleida,1.31194814,42.066158092
34092525140,Montferrer i Castellbò,Alt Urgell,AUR,Lleida,1.428016981,42.341270894
34092525141,Montoliu de Segarra,Segarra,SGA,Lleida,1.269958038,41.590269396
34092525142,Montoliu de Lleida,Segrià,SGR,Lleida,0.588368512,41.560150818
34092525148,Odèn,Solsonès,SOL,Lleida,1.387099236,42.133623075
34092525154,Els Omells de na Gaia,Urgell,URG,Lleida,1.07510478,41.500680291
34092525193,Sant Llorenç de Morunys,Solsonès,SOL,Lleida,1.590910882,42.137245579
34092525158,El Palau d'Anglesola,Pla d'Urgell,PUR,Lleida,0.880824357,41.651646425
34092525150,Oliola,Noguera,NOG,Lleida,1.174256928,41.875964176
34092525155,Organyà,Alt Urgell,AUR,Lleida,1.327366452,42.210716993
34092525152,Les Oluges,Segarra,SGA,Lleida,1.320031043,41.696769509
34092525156,Os de Balaguer,Noguera,NOG,Lleida,0.718450186,41.870726394
34092525170,Bellaguarda,Garrigues,GAR,Lleida,0.738299645,41.336780814
34092525171,La Pobla de Segur,Pallars Jussà,PJU,Lleida,0.969082431,42.249955624
34092525164,Penelles,Noguera,NOG,Lleida,0.965598414,41.757972443
34092525165,Peramola,Alt Urgell,AUR,Lleida,1.267448373,42.057137291
34092525161,Conca de Dalt,Pallars Jussà,PJU,Lleida,0.971426812,42.244784653
34092525163,La Coma i la Pedra,Solsonès,SOL,Lleida,1.589798104,42.175919911
34092525167,Pinós,Solsonès,SOL,Lleida,1.541994622,41.827370473
34092525168,El Poal,Pla d'Urgell,PUR,Lleida,0.856863782,41.678379594
34092525172,Ponts,Noguera,NOG,Lleida,1.186369339,41.915333923
34092525176,Preixana,Urgell,URG,Lleida,1.03860185,41.606901506
34092525225,Tornabous,Urgell,URG,Lleida,1.05285368,41.701532493
34092525179,Prullans,Cerdanya,CER,Lleida,1.736184762,42.379135307
34092525181,Puigverd d'Agramunt,Urgell,URG,Lleida,1.12164226,41.777805619
34092525173,El Pont de Suert,Alta Ribagorça,ARI,Lleida,0.740819954,42.407731665
34094343143,Savallà del Comtat,Conca de Barberà,CBA,Tarragona,1.299624351,41.543127962
34092525183,Rialp,Pallars Sobirà,PSO,Lleida,1.135992931,42.443985096
34092525211,Sudanell,Segrià,SGR,Lleida,0.56712494,41.557691349
34092525200,Sarroca de Lleida,Segrià,SGR,Lleida,0.561683506,41.459129275
34092525186,Riner,Solsonès,SOL,Lleida,1.524576147,41.914637766
34092525185,Ribera d'Urgellet,Alt Urgell,AUR,Lleida,1.382781138,42.312688366
34092525189,Rosselló,Segrià,SGR,Lleida,0.596023748,41.695794873
34092525191,Sanaüja,Segarra,SGA,Lleida,1.309506069,41.875780212
34092525212,Sunyer,Segrià,SGR,Lleida,0.59254954,41.522825048
34092525221,Tírvia,Pallars Sobirà,PSO,Lleida,1.242875431,42.51515105
34092525210,Soses,Segrià,SGR,Lleida,0.487312034,41.5329964
34092525192,Sant Guim de Freixenet,Segarra,SGA,Lleida,1.418867212,41.655776665
34092525196,Sant Esteve de la Sarga,Pallars Jussà,PJU,Lleida,0.763893912,42.079585796
34094343031,Les Borges del Camp,Baix Camp,BCA,Tarragona,1.019587184,41.172030081
34092525202,Senterada,Pallars Jussà,PJU,Lleida,0.936534555,42.3246735
34092525222,Tiurana,Noguera,NOG,Lleida,1.256157847,41.97501877
34092525231,Torrelameu,Noguera,NOG,Lleida,0.702979521,41.704061818
34092525201,Sarroca de Bellera,Pallars Jussà,PJU,Lleida,0.881107541,42.359768042
34092525203,La Seu d'Urgell,Alt Urgell,AUR,Lleida,1.462430747,42.358097618
34092525204,Seròs,Segrià,SGR,Lleida,0.411037646,41.463867203
34092525205,Sidamon,Pla d'Urgell,PUR,Lleida,0.832211886,41.628608802
34092525206,El Soleràs,Garrigues,GAR,Lleida,0.68162869,41.414093772
34092525207,Solsona,Solsonès,SOL,Lleida,1.517179245,41.99466233
34094343029,Blancafort,Conca de Barberà,CBA,Tarragona,1.159223964,41.437936992
34092525208,Soriguera,Pallars Sobirà,PSO,Lleida,1.161365174,42.379617558
34094343010,Alió,Alt Camp,ACA,Tarragona,1.306398395,41.295126206
34092525209,Sort,Pallars Sobirà,PSO,Lleida,1.131249289,42.4128257
34094343034,Bràfim,Alt Camp,ACA,Tarragona,1.341136631,41.268738017
34092525215,Talarn,Pallars Jussà,PJU,Lleida,0.899943075,42.185855021
34092525216,Talavera,Segarra,SGA,Lleida,1.338415635,41.581839816
34092525217,Tàrrega,Urgell,URG,Lleida,1.139054429,41.646283888
34092525219,Tarroja de Segarra,Segarra,SGA,Lleida,1.2765416,41.730486014
34092525220,Térmens,Noguera,NOG,Lleida,0.760492054,41.717606072
34092525228,Torrefarrera,Segrià,SGR,Lleida,0.607077676,41.673084375
34094343036,Cabra del Camp,Alt Camp,ACA,Tarragona,1.276657071,41.395278969
34094343021,Barberà de la Conca,Conca de Barberà,CBA,Tarragona,1.227449026,41.41081942
34092525232,Torres de Segre,Segrià,SGR,Lleida,0.512600714,41.53516991
34092525233,Torre-serona,Segrià,SGR,Lleida,0.631037175,41.672967817
34092525240,Vallfogona de Balaguer,Noguera,NOG,Lleida,0.816350796,41.75200775
34092525242,Verdú,Urgell,URG,Lleida,1.142859787,41.610585216
34092525247,Vilamòs,Val d'Aran,VAR,Lleida,0.726519814,42.747631836
34092525251,Vilanova de Segrià,Segrià,SGR,Lleida,0.618737616,41.712529134
34092525248,Vilanova de Bellpuig,Pla d'Urgell,PUR,Lleida,0.961223054,41.614793222
34092525249,Vilanova de l'Aguda,Noguera,NOG,Lleida,1.252463404,41.910864913
34094343002,Albinyana,Baix Penedès,BPE,Tarragona,1.486184747,41.245632533
34092525250,Vilanova de Meià,Noguera,NOG,Lleida,1.023470182,41.995580083
34092525252,Vila-sana,Pla d'Urgell,PUR,Lleida,0.927470734,41.663553804
34092525901,Vall de Cardós,Pallars Sobirà,PSO,Lleida,1.227640857,42.563615121
34092525904,Castell de Mur,Pallars Jussà,PJU,Lleida,0.87642989,42.091658253
34094343033,Botarell,Baix Camp,BCA,Tarragona,0.988701528,41.136188139
34092525905,Ribera d'Ondara,Segarra,SGA,Lleida,1.341908077,41.627717076
34094343032,Bot,Terra Alta,TAL,Tarragona,0.384843145,41.008964518
34092525906,Les Valls d'Aguilar,Alt Urgell,AUR,Lleida,1.341832868,42.293959661
34092525908,Fígols i Alinyà,Alt Urgell,AUR,Lleida,1.340241294,42.202729199
34092525909,La Vansa i Fórnols,Alt Urgell,AUR,Lleida,1.480451914,42.233562788
34094343006,Aldover,Baix Ebre,BEB,Tarragona,0.500003865,40.879791715
34092525910,Josa i Tuixén,Alt Urgell,AUR,Lleida,1.566512595,42.231225931
34092525911,Els Plans de Sió,Segarra,SGA,Lleida,1.197033473,41.761371051
34092525912,Gimenells i el Pla de la Font,Segrià,SGR,Lleida,0.389850706,41.652278878
34094343001,Aiguamúrcia,Alt Camp,ACA,Tarragona,1.363104482,41.34655112
34094343005,Alcover,Alt Camp,ACA,Tarragona,1.170205538,41.262631863
34094343007,L'Aleixar,Baix Camp,BCA,Tarragona,1.046140895,41.201640418
34094343008,Alfara de Carles,Baix Ebre,BEB,Tarragona,0.400259187,40.873757773
34094343011,Almoster,Baix Camp,BCA,Tarragona,1.113359413,41.198093095
34094343012,Altafulla,Tarragonès,TAR,Tarragona,1.376896997,41.142272974
34094343009,Alforja,Baix Camp,BCA,Tarragona,0.975275129,41.210454848
34094343016,L'Arboç,Baix Penedès,BPE,Tarragona,1.603603923,41.267502585
34094343026,Benissanet,Ribera d'Ebre,REB,Tarragona,0.635144854,41.056672313
34094343015,Arbolí,Baix Camp,BCA,Tarragona,0.948646721,41.241958857
34094343017,L'Argentera,Baix Camp,BCA,Tarragona,0.909320776,41.137218897
34094343018,Arnes,Terra Alta,TAL,Tarragona,0.260519691,40.910152571
34094343019,Ascó,Ribera d'Ebre,REB,Tarragona,0.567111344,41.180901343
34094343020,Banyeres del Penedès,Baix Penedès,BPE,Tarragona,1.580800344,41.27936622
34094343022,Batea,Terra Alta,TAL,Tarragona,0.310763867,41.094904352
34094343025,Benifallet,Baix Ebre,BEB,Tarragona,0.517981377,40.974307959
34094343027,La Bisbal de Falset,Priorat,PRI,Tarragona,0.723326471,41.280225617
34094343035,Cabacés,Priorat,PRI,Tarragona,0.733664655,41.247384835
34094343037,Calafell,Baix Penedès,BPE,Tarragona,1.568712715,41.200955461
34094343059,Figuerola del Camp,Alt Camp,ACA,Tarragona,1.26531658,41.371915239
34094343039,Capafonts,Baix Camp,BCA,Tarragona,1.027284083,41.2955744
34094343061,Forès,Conca de Barberà,CBA,Tarragona,1.235491145,41.493364525
34094343040,Capçanes,Priorat,PRI,Tarragona,0.78130284,41.10014659
34094343041,Caseres,Terra Alta,TAL,Tarragona,0.25057195,41.038568573
34094343042,Castellvell del Camp,Baix Camp,BCA,Tarragona,1.096907219,41.180553391
34094343043,El Catllar,Tarragonès,TAR,Tarragona,1.326137929,41.175478077
34094343045,Colldejou,Baix Camp,BCA,Tarragona,0.888307781,41.100058321
34094343050,Creixell,Tarragonès,TAR,Tarragona,1.440627272,41.167739325
34094343046,Conesa,Conca de Barberà,CBA,Tarragona,1.291294091,41.518605353
34094343047,Constantí,Tarragonès,TAR,Tarragona,1.213727473,41.153087277
34094343048,Corbera d'Ebre,Terra Alta,TAL,Tarragona,0.47815365,41.077729157
34094343062,Freginals,Montsià,MON,Tarragona,0.519922755,40.671895906
34094343052,Xerta,Baix Ebre,BEB,Tarragona,0.490652464,40.906816761
34094343049,Cornudella de Montsant,Priorat,PRI,Tarragona,0.904950072,41.26504071
34094343057,La Febró,Baix Camp,BCA,Tarragona,1.003933683,41.277220742
34094343053,Duesaigües,Baix Camp,BCA,Tarragona,0.930692032,41.146053259
34094343051,Cunit,Baix Penedès,BPE,Tarragona,1.634836815,41.198093014
34094343058,La Figuera,Priorat,PRI,Tarragona,0.732035727,41.216519185
34094343063,La Galera,Montsià,MON,Tarragona,0.463731007,40.681556137
34094343054,L'Espluga de Francolí,Conca de Barberà,CBA,Tarragona,1.104490009,41.396371031
34094343055,Falset,Priorat,PRI,Tarragona,0.820118665,41.146184992
34094343088,Montbrió del Camp,Baix Camp,BCA,Tarragona,1.003792637,41.120681064
34094343056,La Fatarella,Terra Alta,TAL,Tarragona,0.473149679,41.162340268
34094343073,Llorac,Conca de Barberà,CBA,Tarragona,1.307155552,41.556506861
34094343072,El Lloar,Priorat,PRI,Tarragona,0.750961695,41.185878398
34094343064,Gandesa,Terra Alta,TAL,Tarragona,0.439107295,41.052083416
34094343065,Garcia,Ribera d'Ebre,REB,Tarragona,0.648705737,41.136676727
34094343066,Els Garidells,Alt Camp,ACA,Tarragona,1.247606439,41.207264707
34094343067,Ginestar,Ribera d'Ebre,REB,Tarragona,0.633663591,41.041814811
34094343068,Godall,Montsià,MON,Tarragona,0.468609637,40.655582407
34094343074,Llorenç del Penedès,Baix Penedès,BPE,Tarragona,1.552917107,41.282935118
34094343094,Móra la Nova,Ribera d'Ebre,REB,Tarragona,0.650840627,41.100142386
34094343069,Gratallops,Priorat,PRI,Tarragona,0.777456951,41.193638209
34094343070,Els Guiamets,Priorat,PRI,Tarragona,0.752965188,41.101849105
34094343071,Horta de Sant Joan,Terra Alta,TAL,Tarragona,0.31686019,40.953830826
34094343075,Margalef,Priorat,PRI,Tarragona,0.754172771,41.284489964
34094343076,Marçà,Priorat,PRI,Tarragona,0.803144969,41.126788575
34094343077,Mas de Barberans,Montsià,MON,Tarragona,0.37387819,40.735666751
34094343133,Roquetes,Baix Ebre,BEB,Tarragona,0.503011157,40.818382488
34094343138,Santa Bàrbara,Montsià,MON,Tarragona,0.492828019,40.714344487
34094343139,Santa Coloma de Queralt,Conca de Barberà,CBA,Tarragona,1.38330159,41.532383035
34094343141,Pontils,Conca de Barberà,CBA,Tarragona,1.387396068,41.477524726
34094343142,Sarral,Conca de Barberà,CBA,Tarragona,1.248772104,41.444102104
34094343152,La Torre de l'Espanyol,Ribera d'Ebre,REB,Tarragona,0.624788569,41.191385396
34094343145,La Selva del Camp,Baix Camp,BCA,Tarragona,1.136882482,41.215154226
34094343147,Solivella,Conca de Barberà,CBA,Tarragona,1.177765474,41.455904289
34094343149,Tivenys,Baix Ebre,BEB,Tarragona,0.512315345,40.907529934
34094343151,La Torre de Fontaubella,Priorat,PRI,Tarragona,0.864236158,41.124421196
34094343153,Torredembarra,Tarragonès,TAR,Tarragona,1.396064236,41.146065786
34094343166,Vilallonga del Camp,Tarragonès,TAR,Tarragona,1.205916871,41.21136969
34094343154,Torroja del Priorat,Priorat,PRI,Tarragona,0.810210307,41.213554992
34094343167,Vilanova d'Escornalbou,Baix Camp,BCA,Tarragona,0.936622714,41.112967137
34094343156,Ulldecona,Montsià,MON,Tarragona,0.448797887,40.598042993
34094343157,Ulldemolins,Priorat,PRI,Tarragona,0.876332184,41.322383668
34094343158,Vallclara,Conca de Barberà,CBA,Tarragona,0.982069891,41.377204716
34094343159,Vallfogona de Riucorb,Conca de Barberà,CBA,Tarragona,1.236228855,41.563096739
34094343161,Valls,Alt Camp,ACA,Tarragona,1.247623975,41.284304819
34094343162,Vandellòs i l'Hospitalet de l'Infant,Baix Camp,BCA,Tarragona,0.831528354,41.019924424
34094343164,Vespella de Gaià,Tarragonès,TAR,Tarragona,1.362829038,41.195539112
34094343163,El Vendrell,Baix Penedès,BPE,Tarragona,1.53509551,41.220122319
34094343165,Vilabella,Alt Camp,ACA,Tarragona,1.329909008,41.246753499
34094343173,La Vilella Alta,Priorat,PRI,Tarragona,0.781334275,41.22464309
34094343903,Camarles,Baix Ebre,BEB,Tarragona,0.671407425,40.771913716
34094343177,Vinebre,Ribera d'Ebre,REB,Tarragona,0.590646848,41.184233762
34094343175,Vilalba dels Arcs,Terra Alta,TAL,Tarragona,0.410194282,41.121123276
34094343902,Sant Jaume d'Enveja,Montsià,MON,Tarragona,0.717018049,40.705040026
34094343904,L'Aldea,Baix Ebre,BEB,Tarragona,0.620293809,40.745894216
34101212033,Cabanes,Alt Empordà,AEM,Girona,2.978060207,42.307207727
34104646244,Torrent,Baix Empordà,BEM,Girona,3.127563835,41.951913634
